City_ID,City,Lat,Lng,Max Temp,Humidity,Cloudiness,Wind Speed,Country,Date
0,puerto ayora,-0.7393,-90.3518,27.98,92,99,2.24,EC,1674930607
1,mar del plata,-38.0023,-57.5575,27.13,79,20,6.17,AR,1674930454
2,kapaa,22.0752,-159.319,21.18,79,0,3.6,US,1674930487
3,port alfred,-33.5906,26.891,18.43,95,100,2.24,ZA,1674930608
4,hermanus,-34.4187,19.2345,17.67,65,100,7.25,ZA,1674930608
5,bandarbeyla,9.4942,50.8122,24.42,72,79,9.94,SO,1674930609
6,punta arenas,-53.15,-70.9167,17.06,45,0,11.83,CL,1674930347
7,bluff,-46.6,168.3333,14.2,80,10,3.85,NZ,1674930610
8,bredasdorp,-34.5322,20.0403,17.09,60,100,5.4,ZA,1674930452
9,hithadhoo,-0.6,73.0833,27.13,79,4,6.36,MV,1674930611
10,yulara,-25.2406,130.9889,24.09,75,100,2.06,AU,1674930611
11,ancud,-41.8697,-73.8203,18.13,71,0,3.87,CL,1674930612
12,khandyga,62.6667,135.6,-47.61,100,67,1.18,RU,1674930613
13,madera,37.1666,-119.8343,16.1,89,0,0.89,US,1674930420
14,iqaluit,63.7506,-68.5145,-36.15,68,40,0.0,CA,1674930613
15,araouane,18.9048,-3.5265,15.6,11,37,3.05,ML,1674930614
16,east london,-33.0153,27.9116,20.52,94,100,6.17,ZA,1674930614
17,ushuaia,-54.8,-68.3,15.79,51,20,12.86,AR,1674930615
18,dikson,73.5069,80.5464,-25.99,97,88,3.29,RU,1674930615
19,new norfolk,-42.7826,147.0587,15.95,52,61,0.89,AU,1674930428
20,mtambile,-5.3833,39.7,26.18,76,5,6.19,TZ,1674930616
21,doha,25.2867,51.5333,15.94,59,0,5.14,QA,1674930615
22,ilulissat,69.2167,-51.1,-7.99,73,75,6.69,GL,1674930617
23,georgetown,5.4112,100.3354,26.96,80,20,4.12,MY,1674930343
24,rikitea,-23.1203,-134.9692,25.92,73,17,5.12,PF,1674930617
25,vardo,70.3705,31.1107,0.49,95,99,5.21,NO,1674930462
26,bartoszyce,54.2535,20.8082,-3.75,85,100,3.16,PL,1674930618
27,nang rong,14.6377,102.7914,14.71,63,51,5.8,TH,1674930619
28,makakilo city,21.3469,-158.0858,21.18,79,75,6.17,US,1674930619
29,jamestown,42.097,-79.2353,1.8,60,0,5.66,US,1674930620
30,matara,5.9485,80.5353,22.98,87,100,0.41,LK,1674930621
31,mataura,-46.1927,168.8643,12.14,84,1,0.43,NZ,1674930621
32,kiunga,-6.1219,141.2906,22.83,100,100,0.43,PG,1674930621
33,avarua,-21.2078,-159.775,27.03,83,20,5.14,CK,1674930622
34,nome,64.5011,-165.4064,-4.91,100,100,4.63,US,1674930622
35,felanitx,39.4696,3.1483,6.36,68,100,6.72,ES,1674930623
36,cape town,-33.9258,18.4232,18.4,56,20,11.32,ZA,1674930329
37,amapa,1.0,-52.0,26.19,91,88,1.53,BR,1674930624
38,taikang,46.8333,124.4167,-18.35,95,100,4.0,CN,1674930624
39,ibipeba,-11.6408,-42.0111,29.18,45,90,3.08,BR,1674930625
40,conde,-7.2597,-34.9075,28.7,61,40,8.23,BR,1674930446
41,mahebourg,-20.4081,57.7,25.7,94,75,2.06,MU,1674930625
42,lompoc,34.6391,-120.4579,13.34,82,40,2.06,US,1674930626
43,tura,25.5198,90.2201,16.12,48,4,0.95,IN,1674930474
44,zhigansk,66.7697,123.3711,-43.89,98,100,3.83,RU,1674930626
45,carballo,43.213,-8.691,8.75,78,99,5.22,ES,1674930627
46,mayumba,-3.432,10.6554,25.45,82,9,1.73,GA,1674930627
47,faanui,-16.4833,-151.75,27.39,71,0,6.76,PF,1674930628
48,tasiilaq,65.6145,-37.6368,-3.91,93,100,6.06,GL,1674930446
49,bilma,18.6853,12.9164,26.75,11,100,2.85,NE,1674930628
50,tual,-5.6667,132.75,27.2,78,97,3.37,ID,1674930449
51,kodiak,57.79,-152.4072,-0.27,100,100,1.54,US,1674930630
52,astoria,46.1879,-123.8313,6.63,95,0,1.54,US,1674930631
53,constitucion,-35.3333,-72.4167,22.2,52,7,6.93,CL,1674930631
54,suntar,62.1444,117.6319,-42.13,98,82,1.99,RU,1674930632
55,homer,59.6425,-151.5483,3.76,89,100,2.68,US,1674930632
56,provideniya,64.3833,-173.3,-5.34,97,100,1.81,RU,1674930633
57,vanimo,-2.6741,141.3028,24.97,89,91,1.93,PG,1674930567
58,salalah,17.0151,54.0924,23.05,38,0,4.63,OM,1674930633
59,hirara,24.8,125.2833,14.87,65,100,8.4,JP,1674930634
60,saint george,37.1041,-113.5841,8.02,52,0,1.34,US,1674930632
61,fukue,32.6881,128.8419,7.22,60,100,9.62,JP,1674930634
62,yellowknife,62.456,-114.3525,-24.69,70,20,7.72,CA,1674930538
63,churapcha,62.0025,132.4325,-47.86,100,66,0.75,RU,1674930635
64,madimba,-10.4,40.3333,26.62,83,20,4.12,TZ,1674930635
65,albany,42.6001,-73.9662,7.35,75,37,4.37,US,1674930361
66,barrow,71.2906,-156.7887,-22.99,77,75,5.14,US,1674930636
67,labuhan,-6.8844,112.2051,24.34,93,100,2.59,ID,1674930636
68,calabozo,8.9242,-67.4293,34.03,25,5,3.31,VE,1674930637
69,davila,18.4726,120.5763,21.99,81,33,10.2,PH,1674930637
70,dingle,10.9995,122.6711,23.25,92,98,6.45,PH,1674930638
71,caravelas,-17.7125,-39.2481,28.2,66,48,4.23,BR,1674930638
72,saskylakh,71.9167,114.0833,-40.76,100,90,1.54,RU,1674930638
73,sisimiut,66.9395,-53.6735,-11.01,87,100,9.62,GL,1674930639
74,thompson,55.7435,-97.8558,-26.91,63,40,6.17,CA,1674930397
75,flinders,-34.5833,150.8552,24.1,91,39,1.79,AU,1674930639
76,jalu,29.0331,21.5482,14.26,38,0,3.59,LY,1674930640
77,cherskiy,68.75,161.3,-28.29,96,100,2.0,RU,1674930640
78,hilo,19.7297,-155.09,22.38,88,40,2.57,US,1674930610
79,alta gracia,-31.6529,-64.4283,31.05,58,77,3.41,AR,1674930641
80,grand gaube,-20.0064,57.6608,25.77,85,98,2.96,MU,1674930641
81,bambous virieux,-20.3428,57.7575,25.68,94,75,2.06,MU,1674930641
82,pak phanang,8.3511,100.202,25.04,84,99,5.41,TH,1674930588
83,san cristobal,7.7669,-72.225,24.1,37,8,1.43,VE,1674930642
84,tiksi,71.6872,128.8694,-33.85,99,99,1.99,RU,1674930642
85,moron,-34.6534,-58.6198,32.67,66,0,2.1,AR,1674930643
86,busselton,-33.65,115.3333,13.27,76,8,6.15,AU,1674930643
87,bereda,43.2686,-7.5406,5.23,98,79,3.35,ES,1674930643
88,carnarvon,-24.8667,113.6333,24.06,77,0,9.2,AU,1674930419
89,coos bay,43.3665,-124.2179,7.3,99,100,1.54,US,1674930409
90,gravelbourg,49.8834,-106.5512,-19.85,80,97,7.18,CA,1674930644
91,bereznik,62.8551,42.7072,-7.14,86,100,4.51,RU,1674930644
92,cap malheureux,-19.9842,57.6142,25.82,85,66,2.67,MU,1674930645
93,koraput,18.8167,82.7167,15.78,70,0,2.5,IN,1674930645
94,eufaula,31.8913,-85.1455,15.02,29,0,1.54,US,1674930646
95,sassandra,4.95,-6.0833,26.6,81,16,3.81,CI,1674930646
96,gelemso,8.8167,40.5167,17.59,49,3,1.84,ET,1674930646
97,qaanaaq,77.484,-69.3632,-20.14,57,15,3.87,GL,1674930647
98,dubbo,-32.25,148.6167,23.07,60,100,2.57,AU,1674930583
99,weimar,50.9833,11.3167,-0.79,70,92,0.45,DE,1674930647
100,sibu,2.3,111.8167,24.17,100,40,1.54,MY,1674930648
101,manaus,-3.1019,-60.025,30.28,78,75,1.54,BR,1674930140
102,cabo san lucas,22.8909,-109.9124,24.23,65,20,1.54,MX,1674930410
103,tuktoyaktuk,69.4541,-133.0374,-29.0,76,0,5.14,CA,1674930649
104,omboue,-1.5746,9.2618,25.84,79,93,3.22,GA,1674930549
105,chuy,-33.6971,-53.4616,27.37,61,100,1.57,UY,1674930649
106,apt,43.8833,5.4,1.53,68,7,1.34,FR,1674930649
107,hope,33.6671,-93.5916,11.03,92,100,4.52,US,1674930650
108,pasighat,28.0667,95.3333,16.49,54,0,1.61,IN,1674930650
109,qaqortoq,60.7167,-46.0333,-6.79,75,100,15.17,GL,1674930420
110,pevek,69.7008,170.3133,-18.75,93,99,1.64,RU,1674930651
111,chokurdakh,70.6333,147.9167,-37.34,100,95,1.27,RU,1674930651
112,vaini,-21.2,-175.2,25.09,94,40,1.54,TO,1674930652
113,katsuura,35.1333,140.3,3.38,50,32,4.33,JP,1674930652
114,hobart,-42.8794,147.3294,16.14,79,100,1.54,AU,1674930537
115,varhaug,58.6147,5.6457,6.05,89,88,6.25,NO,1674930653
116,las vegas,36.175,-115.1372,11.8,42,0,1.54,US,1674930092
117,isangel,-19.55,169.2667,26.23,83,79,2.45,VU,1674930497
118,esperance,-33.8667,121.9,14.97,70,3,3.41,AU,1674930651
119,atuona,-9.8,-139.0333,25.91,79,93,9.29,PF,1674930427
120,codrington,-38.2667,141.9667,15.16,95,100,4.6,AU,1674930487
121,kaitangata,-46.2817,169.8464,11.7,79,5,1.71,NZ,1674930654
122,upernavik,72.7868,-56.1549,-18.35,92,100,1.54,GL,1674930654
123,vestmannaeyjar,63.4427,-20.2734,6.55,87,40,8.23,IS,1674930655
124,ulaangom,49.9811,92.0667,-28.13,95,99,1.11,MN,1674930655
125,murgab,37.4966,61.9714,-0.07,80,100,2.06,TM,1674930655
126,husavik,66.0449,-17.3389,2.23,92,100,2.15,IS,1674930656
127,mansa,29.9833,75.3833,10.86,47,95,2.14,IN,1674930656
128,ambilobe,-13.2,49.05,24.42,90,100,0.9,MG,1674930657
129,itarema,-2.9248,-39.9167,28.76,67,12,7.13,BR,1674930657
130,fairlie,55.756,-4.8556,6.95,86,89,0.45,GB,1674930657
131,arraial do cabo,-22.9661,-42.0278,30.92,70,40,4.63,BR,1674930658
132,saldanha,-33.0117,17.9442,19.03,72,0,14.19,ZA,1674930658
133,nikolskoye,59.7035,30.7861,-5.05,87,100,5.09,RU,1674930658
134,acarau,-2.8856,-40.12,29.36,64,39,7.3,BR,1674930398
135,clarksburg,39.2807,-80.3445,11.07,48,75,7.2,US,1674930632
136,the valley,18.217,-63.0578,24.92,94,75,5.66,AI,1674930459
137,cayenne,4.9333,-52.3333,24.02,94,100,2.06,GF,1674930547
138,mingguang,32.7802,117.9638,-0.12,41,5,3.04,CN,1674930659
139,pisco,-13.7,-76.2167,24.03,78,0,4.12,PE,1674930660
140,norman wells,65.282,-126.8329,-28.98,76,20,3.6,CA,1674930660
141,jieshi,22.8134,115.8257,9.76,54,5,5.08,CN,1674930661
142,kavaratti,10.5669,72.642,26.66,72,6,3.79,IN,1674930661
143,quatre cocos,-20.2078,57.7625,25.61,87,80,2.57,MU,1674930661
144,hattiesburg,31.3271,-89.2903,20.18,45,0,7.2,US,1674930662
145,lanzhou,36.0564,103.7922,-4.19,31,0,0.91,CN,1674930608
146,sitka,57.0531,-135.33,0.94,86,0,0.0,US,1674930663
147,portland,45.5234,-122.6762,7.27,94,100,3.58,US,1674930004
148,luganville,-15.5333,167.1667,26.34,83,19,1.87,VU,1674930663
149,satipo,-11.2522,-74.6386,29.97,53,100,1.25,PE,1674930664
150,airai,-8.9266,125.4092,16.04,92,90,0.72,TL,1674930664
151,singkang,2.1006,102.7994,23.08,94,100,3.13,MY,1674930665
152,sakakah,29.9697,40.2064,14.76,47,93,4.1,SA,1674930666
153,bubaque,11.2833,-15.8333,25.13,81,67,6.73,GW,1674930666
154,ponta do sol,32.6667,-17.1,16.51,70,83,3.16,PT,1674930533
155,wajid,3.8093,43.2471,26.95,25,0,5.05,SO,1674930667
156,sarakhs,36.5449,61.1577,2.34,66,9,1.9,IR,1674930668
157,pangnirtung,66.1451,-65.7125,-35.0,68,20,1.03,CA,1674930668
158,khatanga,71.9667,102.5,-32.49,91,7,3.76,RU,1674930669
159,butaritari,3.0707,172.7902,27.2,79,100,10.94,KI,1674930669
160,okhotsk,59.3833,143.3,-26.27,83,99,4.46,RU,1674930670
161,guerrero negro,27.9769,-114.0611,17.04,42,94,1.71,MX,1674930406
162,lata,40.1629,-8.3327,10.45,67,0,2.06,PT,1674930461
163,broome,42.2506,-75.833,6.45,50,0,7.2,US,1674930418
164,akyab,20.15,92.9,22.0,76,0,1.14,MM,1674930671
165,halifax,44.6453,-63.5724,4.08,75,75,6.17,CA,1674930592
166,santa rosa,14.3122,121.1114,24.99,79,89,7.32,PH,1674930578
167,luanda,-8.8368,13.2343,28.0,74,75,3.09,AO,1674930672
168,fort-shevchenko,44.5086,50.263,1.14,57,10,6.32,KZ,1674930673
169,orange walk,17.8333,-88.8333,26.62,75,35,3.49,BZ,1674930674
170,asyut,27.181,31.1837,22.1,21,5,1.95,EG,1674930674
171,venezuela,8.0,-66.0,33.38,27,7,5.73,VE,1674930629
172,vila velha,-20.3297,-40.2925,29.97,76,40,7.2,BR,1674930675
173,havre-saint-pierre,50.2334,-63.5986,-1.8,69,100,7.72,CA,1674930676
174,port hardy,50.6996,-127.4199,5.1,87,100,3.6,CA,1674930676
175,keokuk,40.3973,-91.3849,6.72,86,75,4.12,US,1674930677
176,kumluca,36.3703,30.2869,12.87,69,1,2.28,TR,1674930677
177,clyde river,70.4692,-68.5914,-18.87,71,100,8.23,CA,1674930679
178,paracelis,17.2667,121.4667,17.47,88,100,3.05,PH,1674930679
179,kavieng,-2.5744,150.7967,27.54,77,15,4.28,PG,1674930418
180,vila,42.0304,-8.1588,2.61,73,16,2.27,PT,1674930680
181,castro,-24.7911,-50.0119,28.37,42,0,1.98,BR,1674930680
182,saint-francois,46.4154,3.9054,2.69,72,100,3.09,FR,1674930476
183,hami,42.8,93.45,-8.18,33,0,0.49,CN,1674930681
184,odweyne,9.4092,45.064,20.75,66,10,5.08,SO,1674930682
185,chicama,-7.8447,-79.1469,21.3,57,100,4.67,PE,1674930683
186,anuchino,43.9622,133.0544,-27.07,98,34,1.47,RU,1674930683
187,jaisalmer,26.9147,70.9181,15.07,16,0,3.65,IN,1674930684
188,aloleng,16.1307,119.7824,22.74,70,55,4.55,PH,1674930684
189,kenai,60.5544,-151.2583,-2.7,86,75,2.06,US,1674930685
190,meoqui,28.2833,-105.4833,18.93,25,100,4.52,MX,1674930685
191,chapais,49.7834,-74.8492,-16.12,88,100,5.83,CA,1674930686
192,riyadh,24.6877,46.7219,13.08,37,0,2.57,SA,1674930627
193,sibolga,1.7427,98.7792,23.94,90,100,1.47,ID,1674930617
194,evensk,61.95,159.2333,-12.17,82,75,5.38,RU,1674930686
195,severo-kurilsk,50.6789,156.125,-4.05,76,100,5.93,RU,1674930687
196,marystown,47.1666,-55.1483,-1.08,65,70,3.66,CA,1674930687
197,namatanai,-3.6667,152.4333,25.97,82,89,1.93,PG,1674930688
198,laguna,38.421,-121.4238,13.16,89,0,2.06,US,1674930528
199,fortuna,40.5982,-124.1573,9.19,88,100,0.45,US,1674930689
200,henties bay,-22.116,14.2845,18.51,81,96,2.31,NA,1674930690
201,alapur,27.9555,79.2269,12.47,45,8,1.68,IN,1674930690
202,ostroh,50.3294,26.5143,-2.72,80,29,2.34,UA,1674930690
203,gold coast,-28.0,153.4333,23.99,94,92,1.54,AU,1674930691
204,basco,20.4487,121.9702,19.66,69,100,12.03,PH,1674930691
205,toritama,-8.0067,-36.0567,31.91,30,2,6.73,BR,1674930692
206,mahon,39.8885,4.2658,8.31,76,75,10.29,ES,1674930692
207,trincomalee,8.5711,81.2335,24.77,78,100,3.76,LK,1674930692
208,kirakira,-10.4544,161.9205,26.31,84,100,1.75,SB,1674930693
209,beringovskiy,63.05,179.3167,-8.7,93,19,2.83,RU,1674930693
210,camacha,33.0833,-16.3333,13.68,63,40,7.72,PT,1674930694
211,itaituba,-4.2761,-55.9836,26.09,89,75,2.57,BR,1674930694
212,gordeyevka,52.9569,31.9703,-3.01,84,98,1.76,RU,1674930695
213,santa cruz,-17.8,-63.1667,33.03,58,75,5.14,BO,1674930695
214,oussouye,12.485,-16.5469,35.1,39,47,2.77,SN,1674930696
215,olafsvik,64.8945,-23.7142,4.45,84,82,8.36,IS,1674930543
216,saint-georges,12.0564,-61.7485,23.82,88,75,5.14,GD,1674930563
217,lumphat,13.4878,106.9816,20.08,64,41,3.73,KH,1674930696
218,montegranaro,43.2355,13.631,4.31,81,100,1.66,IT,1674930697
219,nanortalik,60.1432,-45.2371,-5.1,74,95,16.84,GL,1674930698
220,la ciotat,43.1748,5.6045,7.12,79,23,2.91,FR,1674930699
221,takikawa,43.5528,141.9064,-9.29,87,100,4.79,JP,1674930699
222,hasaki,35.7333,140.8333,-2.78,52,92,7.02,JP,1674930699
223,noumea,-22.2763,166.4572,25.56,99,100,2.51,NC,1674930700
224,fort frances,48.5999,-93.4003,-21.08,76,0,3.09,CA,1674930700
225,esil,51.9556,66.4042,-11.51,94,100,3.68,KZ,1674930701
226,tainan,22.9908,120.2133,11.88,61,40,2.57,TW,1674930702
227,yar-sale,66.8333,70.8333,-19.72,98,97,3.69,RU,1674930702
228,bellavista,-7.0561,-76.5911,33.71,62,20,2.57,PE,1674930703
229,komsomolskiy,40.4272,71.7189,-0.6,69,100,0.0,UZ,1674930703
230,kano,12.0001,8.5167,29.94,28,0,2.06,NG,1674930704
231,khudumelapye,-23.8833,24.75,28.53,25,81,2.67,BW,1674930704
232,la rioja,42.25,-2.5,-0.12,95,100,4.4,ES,1674930441
233,shimoda,34.6667,138.95,1.17,71,7,8.81,JP,1674930705
234,doka,13.5167,35.7667,27.93,22,6,5.65,SD,1674930705
235,harrogate,53.9908,-1.5373,7.08,90,75,4.12,GB,1674930706
236,alofi,-19.0595,-169.9187,24.94,94,95,1.54,NU,1674930450
237,lavrentiya,65.5833,-171.0,-9.71,96,100,1.54,RU,1674930706
238,college,64.8569,-147.8028,-8.56,80,100,0.0,US,1674930707
239,la palma,33.8464,-118.0467,17.07,65,40,3.09,US,1674930707
240,amahai,-3.3333,128.9167,25.65,86,100,0.68,ID,1674930707
241,hay river,60.8156,-115.7999,-22.01,71,20,7.72,CA,1674930708
242,prince rupert,54.3161,-130.3201,2.83,100,0,2.06,CA,1674930709
243,sakaide,34.3167,133.85,1.97,71,76,5.41,JP,1674930709
244,bilibino,68.0546,166.4372,-22.29,98,47,1.42,RU,1674930709
245,ewa beach,21.3156,-158.0072,21.97,79,75,6.17,US,1674930710
246,grand-lahou,5.1367,-5.0242,26.76,85,11,4.4,CI,1674930710
247,thomasville,35.8826,-80.082,13.93,37,55,0.45,US,1674930711
248,ossora,59.2353,163.0719,-6.42,96,100,3.21,RU,1674930711
249,aykhal,66.0,111.5,-35.83,100,84,1.64,RU,1674930711
250,victoria,22.2855,114.1577,12.4,31,6,8.05,HK,1674930653
251,kruisfontein,-34.0033,24.7314,16.6,71,100,6.33,ZA,1674930712
252,madang,-5.2246,145.7966,23.67,86,36,2.02,PG,1674930712
253,bambanglipuro,-7.95,110.2833,24.08,93,100,1.65,ID,1674930713
254,nouadhibou,20.931,-17.0347,18.23,72,16,9.31,MR,1674930713
255,barraute,48.4335,-77.6328,-15.85,81,100,4.72,CA,1674930714
256,belaya gora,68.5333,146.4167,-38.97,100,93,1.16,RU,1674930714
257,westport,41.1415,-73.3579,11.46,44,100,3.13,US,1674930715
258,sindor,62.8629,51.8905,-6.93,89,100,4.75,RU,1674930715
259,muroto,33.2833,134.15,3.61,58,49,5.02,JP,1674930715
260,kabanjahe,3.1001,98.4908,16.87,94,98,0.53,ID,1674930716
261,opotiki,-38.0833,177.2833,21.33,97,100,4.26,NZ,1674930716
262,merauke,-8.4667,140.3333,25.66,85,100,0.22,ID,1674930716
263,champerico,14.3,-91.9167,33.3,57,42,4.5,GT,1674930717
264,narsaq,60.9167,-46.05,-3.88,67,71,9.5,GL,1674930717
265,sukhumi,43.0033,41.0153,9.28,71,100,2.66,GE,1674930717
266,porto novo,6.4965,2.6036,28.9,82,100,4.11,BJ,1674930718
267,torbay,47.6666,-52.7314,-0.4,67,20,4.63,CA,1674930718
268,deputatskiy,69.3,139.9,-32.76,97,100,1.45,RU,1674930719
269,huarmey,-10.0681,-78.1522,24.6,72,100,4.66,PE,1674930719
270,wichita,37.6922,-97.3375,10.44,52,20,4.12,US,1674930451
271,bagakay,8.1386,123.8044,23.42,95,97,1.41,PH,1674930720
272,kosonsoy,41.2561,71.5508,-3.69,72,100,2.19,UZ,1674930720
273,enid,36.3956,-97.8784,12.27,50,0,8.23,US,1674930576
274,ambon,-3.6954,128.1814,25.69,15,40,2.06,ID,1674930720
275,creel,27.75,-107.6333,12.28,37,21,10.26,MX,1674930721
276,mount isa,-20.7333,139.5,24.87,73,64,3.09,AU,1674930469
277,matagami,49.7502,-77.6328,-19.94,65,100,5.66,CA,1674930568
278,lagoa,39.05,-27.9833,14.37,79,94,7.36,PT,1674930722
279,baykit,61.67,96.37,-19.5,100,99,0.53,RU,1674930723
280,plavinas,56.6178,25.7255,-3.83,86,100,3.29,LV,1674930723
281,zabol,32.25,67.25,-0.63,97,100,4.45,AF,1674930724
282,smidovich,48.6,133.8167,-37.34,100,20,1.94,RU,1674930725
283,marawi,7.9986,124.2928,20.04,98,81,1.45,PH,1674930725
284,ryotsu,38.0833,138.4333,-0.08,69,100,8.75,JP,1674930725
285,palmer,42.1584,-72.3287,9.73,40,20,4.12,US,1674930726
286,yuci,37.6803,112.7319,-11.14,52,0,1.0,CN,1674930726
287,natal,-5.795,-35.2094,31.36,61,20,10.29,BR,1674930657
288,charters towers,-20.1,146.2667,22.77,94,39,3.26,AU,1674930727
289,kigali,-1.95,30.0588,24.71,47,20,1.03,RW,1674930728
290,kattivakkam,13.2167,80.3167,26.05,71,70,3.56,IN,1674930729
291,meulaboh,4.1363,96.1285,24.54,88,100,1.05,ID,1674930526
292,sao miguel do araguaia,-13.275,-50.1628,26.03,81,100,1.32,BR,1674930729
293,bad liebenwerda,51.5167,13.4,1.27,78,98,1.84,DE,1674930730
294,mokobeng,-22.9965,27.6678,28.77,25,24,1.95,BW,1674930730
295,naryan-mar,67.6713,53.087,-9.9,96,100,3.83,RU,1674930731
296,porosozero,62.7191,32.727,-3.57,94,100,6.14,RU,1674930731
297,port keats,-14.25,129.55,27.31,78,100,2.61,AU,1674930453
298,boende,-0.2167,20.8667,26.08,59,68,1.11,CD,1674930732
299,bukachacha,52.9833,116.9167,-25.51,99,42,1.62,RU,1674930732
300,kahului,20.8947,-156.47,21.02,95,100,3.09,US,1674930630
301,darhan,49.4867,105.9228,-20.39,94,21,2.58,MN,1674930733
302,ganzhou,28.8184,115.4327,1.66,46,0,1.13,CN,1674930733
303,alice springs,-23.7,133.8833,23.75,94,40,2.57,AU,1674930567
304,bulancak,40.9372,38.2291,8.9,71,75,1.03,TR,1674930734
305,mehamn,71.0357,27.8492,-1.05,86,100,5.66,NO,1674930734
306,bahia honda,22.9036,-83.1592,26.63,67,74,5.85,CU,1674930735
307,alexandria,31.2156,29.9553,15.3,62,6,3.05,EG,1674930735
308,antigonish,45.6169,-61.9986,2.86,72,77,3.13,CA,1674930735
309,payakumbuh,-0.2202,100.6308,20.43,98,100,0.67,ID,1674930702
310,winnemucca,40.973,-117.7357,1.42,71,46,1.4,US,1674930546
311,roald,62.5833,6.1333,5.18,87,100,6.69,NO,1674930736
312,sao filipe,14.8961,-24.4956,23.59,70,65,5.27,CV,1674930737
313,kizhinga,51.8462,109.9097,-14.94,92,100,3.29,RU,1674930737
314,hambantota,6.1241,81.1185,23.19,100,20,3.6,LK,1674930738
315,carnot,4.9409,15.8665,26.44,35,65,1.14,CF,1674930738
316,derry,54.9981,-7.3093,4.97,81,100,1.96,GB,1674930647
317,agirish,61.9247,63.0231,-15.07,89,15,3.36,RU,1674930739
318,catole do rocha,-6.3439,-37.7467,35.55,20,0,4.37,BR,1674930739
319,buluang,13.3068,123.3425,22.34,93,100,4.08,PH,1674930740
320,walvis bay,-22.9575,14.5053,18.38,76,33,4.3,NA,1674930586
321,port elizabeth,-33.918,25.5701,17.83,96,100,5.66,ZA,1674930741
322,bayir,37.2687,28.2167,7.29,92,10,0.56,TR,1674930741
323,sneek,53.033,5.6589,4.97,88,100,3.58,NL,1674930724
324,antalaha,-14.9003,50.2788,25.26,91,42,1.48,MG,1674930742
325,khrebtovaya,56.7032,104.2494,-12.8,96,100,2.25,RU,1674930742
326,naze,28.3667,129.4833,8.51,67,100,5.6,JP,1674930742
327,geraldton,-28.7667,114.6,21.23,73,0,7.72,AU,1674930662
328,mogadishu,2.0371,45.3438,24.96,81,0,9.78,SO,1674930694
329,namibe,-15.1961,12.1522,24.16,82,100,3.65,AO,1674930744
330,skibbereen,51.55,-9.2667,8.95,97,78,0.8,IE,1674930744
331,wichita falls,33.9137,-98.4934,16.07,55,0,10.73,US,1674930583
332,kilindoni,-7.9139,39.6668,26.87,76,8,7.42,TZ,1674930745
333,santo domingo,18.5001,-69.9886,27.82,79,75,6.17,DO,1674930430
334,bethel,41.3712,-73.414,10.76,45,0,6.17,US,1674930745
335,colares,38.7992,-9.4469,11.05,58,0,2.57,PT,1674930746
336,port macquarie,-31.4333,152.9167,21.61,93,53,3.78,AU,1674930746
337,vila do maio,15.1333,-23.2167,24.44,67,9,9.41,CV,1674930746
338,soke,13.598,-5.9386,25.46,11,99,4.28,ML,1674930747
339,bengkulu,-3.8004,102.2655,24.79,86,100,6.43,ID,1674930747
340,lazarev,52.225,141.5131,-28.93,99,99,2.31,RU,1674930748
341,saint-philippe,-21.3585,55.7679,26.77,88,100,0.88,RE,1674930748
342,kalmunai,7.4167,81.8167,22.48,79,100,3.95,LK,1674930749
343,mutoko,-17.397,32.2268,19.48,89,69,1.22,ZW,1674930749
344,villa carlos paz,-31.4241,-64.4978,30.22,63,23,1.34,AR,1674930578
345,marsa matruh,31.3525,27.2453,15.11,58,0,1.03,EG,1674930750
346,cleveland,41.4995,-81.6954,5.1,60,0,5.14,US,1674930588
347,avera,33.194,-82.5271,15.31,41,100,2.31,US,1674930750
348,pasil,17.3833,121.1333,12.76,96,100,1.17,PH,1674930751
349,sur,22.5667,59.5289,20.28,69,16,8.61,OM,1674930752
350,pandaria,22.2333,81.4167,17.76,53,0,2.54,IN,1674930752
351,xining,36.6167,101.7667,-5.86,31,3,0.41,CN,1674930753
352,la asuncion,11.0333,-63.8628,25.83,65,8,5.56,VE,1674930753
353,liberal,37.0431,-100.921,9.08,40,0,5.14,US,1674930754
354,samarai,-10.6167,150.6667,28.08,78,59,4.12,PG,1674930754
355,sept-iles,50.2001,-66.3821,-2.75,93,100,6.17,CA,1674930696
356,ribeira grande,38.5167,-28.7,16.22,63,40,4.92,PT,1674930754
357,ribeira brava,32.65,-17.0667,16.51,73,74,3.38,PT,1674930755
358,yaransk,57.3033,47.8861,-19.26,100,100,2.49,RU,1674930755
359,strelka,58.0728,93.0344,-7.42,95,100,3.12,RU,1674930756
360,taksimo,56.3444,114.8794,-19.08,94,100,0.81,RU,1674930756
361,hamilton,39.1834,-84.5333,11.69,51,0,5.14,US,1674930469
362,kopanskaya,46.2779,38.4795,2.68,87,100,4.91,RU,1674930757
363,scarborough,54.2797,-0.4044,6.3,92,100,2.81,GB,1674930748
364,raudeberg,61.9875,5.1352,5.37,29,100,8.4,NO,1674930757
365,terney,45.0503,136.6092,-21.96,87,1,5.62,RU,1674930739
366,barcelona,41.3888,2.159,8.9,65,75,6.17,ES,1674930758
367,virginia beach,36.8529,-75.978,15.58,39,20,4.63,US,1674930654
368,alyangula,-13.8483,136.4192,26.82,81,100,2.15,AU,1674930758
369,bac lieu,9.285,105.7244,23.7,79,100,3.77,VN,1674930759
370,lamu,-2.2717,40.902,26.12,83,2,6.9,KE,1674930759
371,kryve ozero,47.9524,30.3493,-1.81,65,95,5.49,UA,1674930759
372,konin,52.2234,18.2512,-2.75,77,12,2.23,PL,1674930760
373,salihorsk,52.7876,27.5415,-2.03,94,100,1.29,BY,1674930760
374,zhezkazgan,47.8043,67.7144,-20.63,91,11,1.09,KZ,1674930760
375,korla,41.7597,86.1469,-9.37,72,0,0.81,CN,1674930761
376,samfya,-11.3649,29.5565,18.69,93,100,1.85,ZM,1674930761
377,voyvozh,62.892,54.9635,-8.66,95,100,4.53,RU,1674930761
378,almeirim,-1.5233,-52.5817,30.22,53,86,3.34,BR,1674930762
379,brownwood,31.7093,-98.9912,18.0,65,100,6.17,US,1674930762
380,alamosa,37.4695,-105.87,1.99,48,0,8.23,US,1674930763
381,atar,20.5169,-13.0499,18.48,34,98,4.46,MR,1674930763
382,alpena,45.0617,-83.4327,-3.27,61,100,3.09,US,1674930764
383,souillac,-20.5167,57.5167,25.21,94,75,2.06,MU,1674930764
384,anadyr,64.75,177.4833,-1.72,80,20,6.0,RU,1674930764
385,jinka,5.65,36.65,23.08,34,59,0.36,ET,1674930765
386,longyearbyen,78.2186,15.6401,-4.09,68,75,9.77,SJ,1674930765
387,camopi,3.1655,-52.3158,25.37,90,77,2.04,GF,1674930766
388,fare,-16.7,-151.0167,27.35,73,0,7.18,PF,1674930766
389,sete,43.4018,3.6966,4.92,56,69,3.98,FR,1674930585
390,havelock,34.8791,-76.9013,15.99,40,0,0.89,US,1674930767
391,sabang,5.8933,95.3214,25.3,82,100,5.98,ID,1674930767
392,vanavara,60.34,102.2797,-16.46,98,92,1.87,RU,1674930768
393,cascais,38.6979,-9.4215,11.14,58,0,2.57,PT,1674930652
394,vila franca do campo,37.7167,-25.4333,14.23,73,50,4.61,PT,1674930768
395,abay,49.6311,72.8539,-17.79,88,18,2.64,KZ,1674930769
396,petropavlovsk-kamchatskiy,53.0452,158.6483,-5.67,80,75,4.0,RU,1674930769
397,muros,42.7762,-9.0603,9.35,63,26,7.21,ES,1674930597
398,fort nelson,58.8053,-122.7002,-20.59,83,0,2.24,CA,1674930630
399,harper,4.375,-7.7169,26.77,84,6,3.79,LR,1674930770
400,monteagudo,-19.8167,-63.9833,28.53,45,100,0.4,BO,1674930771
401,nedjo,9.5046,35.5019,18.86,24,9,2.17,ET,1674930771
402,smithers,54.7804,-127.1743,-5.82,58,75,4.63,CA,1674930771
403,port hedland,-20.3167,118.5667,28.03,89,40,2.06,AU,1674930732
404,luderitz,-26.6481,15.1594,21.13,67,0,11.7,NA,1674930772
405,auki,-8.7676,160.7034,25.23,86,93,1.14,SB,1674930561
406,tsabong,-26.0217,22.401,30.08,28,14,1.03,BW,1674930772
407,tuatapere,-46.1333,167.6833,12.8,82,6,0.82,NZ,1674930773
408,leningradskiy,69.3833,178.4167,-16.76,94,100,5.14,RU,1674930566
409,port blair,11.6667,92.75,27.02,78,40,2.57,IN,1674930774
410,bol,13.4586,14.7147,26.49,39,59,3.71,TD,1674930774
411,cariamanga,-4.3333,-79.55,22.43,56,99,2.25,EC,1674930774
412,padang,-0.9492,100.3543,24.24,88,100,1.01,ID,1674930775
413,makali,8.6333,-11.6667,28.11,50,74,1.87,SL,1674930775
414,estevan,49.1334,-102.9842,-20.81,77,0,6.69,CA,1674930775
415,chernoistochinsk,57.7364,59.8719,-15.8,98,52,2.52,RU,1674930776
416,cidreira,-30.1811,-50.2056,27.54,70,100,6.01,BR,1674930776
417,hualmay,-11.0964,-77.6139,24.86,69,51,5.03,PE,1674930557
418,moindou,-21.6924,165.677,24.33,85,100,2.1,NC,1674930777
419,malibu,34.005,-118.8101,16.4,76,0,0.89,US,1674930777
420,nuuk,64.1835,-51.7216,-9.66,73,100,7.15,GL,1674930777
421,semey,50.4111,80.2275,-16.65,84,7,4.34,KZ,1674930778
422,upata,8.0086,-62.3989,28.44,53,79,2.07,VE,1674930778
423,gorontalo,0.5412,123.0595,23.39,96,94,1.6,ID,1674930778
424,lebu,-37.6167,-73.65,18.42,61,0,9.67,CL,1674930779
425,san ramon,37.7799,-121.978,13.12,78,100,0.89,US,1674930779
426,chepareria,1.3077,35.2039,16.93,43,0,2.71,KE,1674930780
427,tessalit,20.1986,1.0114,14.98,11,79,3.97,ML,1674930780
428,praia,14.9215,-23.5087,24.3,64,0,10.8,CV,1674930673
429,zhuzhou,27.8333,113.15,-0.93,46,0,0.59,CN,1674930781
430,solnechnyy,50.7214,136.6319,-31.22,97,57,1.79,RU,1674930781
431,sakaiminato,35.55,133.2333,-0.01,93,75,4.63,JP,1674930781
432,terrace,54.5163,-128.6035,0.95,55,40,4.63,CA,1674930577
433,turayf,31.6725,38.6637,15.14,44,0,6.17,SA,1674930782
434,bud,39.447,-86.1758,12.08,65,100,4.81,US,1674930783
435,klaksvik,62.2266,-6.589,6.51,88,100,14.27,FO,1674930783
436,khor,47.8861,134.9464,-38.52,100,41,1.15,RU,1674930784
437,pampas,-12.4,-74.9,16.2,59,88,3.74,PE,1674930784
438,hastings,50.8552,0.5729,5.29,74,71,2.23,GB,1674930675
439,la ronge,55.1001,-105.2842,-20.86,59,75,8.23,CA,1674930629
440,poum,-20.2333,164.0167,26.41,79,100,2.01,NC,1674930785
441,moose factory,51.2585,-80.6094,-25.0,64,0,6.17,CA,1674930785
442,san patricio,28.017,-97.5169,21.06,80,99,6.61,US,1674930511
443,bayangol,50.6977,103.4656,-23.42,98,39,1.58,RU,1674930788
444,mahanoro,-19.9,48.8,26.15,90,100,2.74,MG,1674930788
445,barabai,-2.5833,115.3833,23.3,93,100,0.47,ID,1674930788
446,aksarayskiy,46.7924,48.0119,-2.21,79,22,3.57,RU,1674930789
447,lixourion,38.2019,20.4314,9.0,87,75,2.06,GR,1674930789
448,siilinjarvi,63.0833,27.6667,0.01,93,100,4.63,FI,1674930737
449,ust-kuyga,70.0167,135.6,-37.02,96,100,3.14,RU,1674930790
450,asau,46.4333,26.4,-1.49,88,100,2.54,RO,1674930596
451,dhidhdhoo,6.8833,73.1,26.85,76,8,3.83,MV,1674930791
452,bafia,4.75,11.2333,24.82,69,57,2.67,CM,1674930791
453,pampierstad,-27.7832,24.6877,29.1,27,94,5.9,ZA,1674930792
454,bathsheba,13.2167,-59.5167,28.34,57,40,9.77,BB,1674930793
455,diffa,13.3154,12.6113,28.04,11,100,4.18,NE,1674930794
456,coquimbo,-29.9533,-71.3436,19.85,72,20,7.2,CL,1674930794
457,fairbanks,64.8378,-147.7164,-8.28,79,100,0.0,US,1674930794
458,brae,60.3964,-1.353,7.58,81,100,8.68,GB,1674930795
459,berlevag,70.8578,29.0864,-0.11,86,75,5.14,NO,1674930507
460,ostrovnoy,68.0531,39.5131,-2.21,86,100,11.35,RU,1674930795
461,novopokrovka,49.8425,36.5477,-3.16,76,40,4.06,UA,1674930796
462,diu,20.7141,70.9822,20.39,77,0,3.94,IN,1674930796
463,sciacca,37.5082,13.0881,8.91,79,58,3.3,IT,1674930796
464,evinayong,1.4368,10.5512,21.22,92,96,0.81,GQ,1674930797
465,acajutla,13.5928,-89.8275,31.36,42,76,4.16,SV,1674930797
466,tamandare,-8.7597,-35.1047,28.24,59,1,4.98,BR,1674930798
467,sundsvall,62.3913,17.3063,-5.02,86,100,1.54,SE,1674930798
468,havoysund,70.9963,24.6622,1.13,75,99,12.41,NO,1674930537
469,eyl,7.9803,49.8164,23.65,74,16,8.86,SO,1674930799
470,gobabis,-22.45,18.9667,27.29,36,100,8.2,NA,1674930799
471,shelburne,44.0787,-80.2041,-2.75,80,100,4.9,CA,1674930800
472,oranjemund,-28.55,16.4333,16.99,90,25,9.02,NA,1674930800
473,qasigiannguit,68.8193,-51.1922,-7.86,91,100,8.37,GL,1674930801
474,wroclaw,51.1,17.0333,-1.44,78,100,3.09,PL,1674930732
475,necochea,-38.5473,-58.7368,25.71,57,0,6.27,AR,1674930608
476,skjervoy,70.0311,20.9714,-1.0,67,63,10.5,NO,1674930802
477,kerman,30.2832,57.0788,-3.08,100,1,0.0,IR,1674930802
478,namie,37.4833,141.0,-1.27,68,83,4.04,JP,1674930803
479,vestmanna,62.1564,-7.1664,5.51,93,100,9.77,FO,1674930803
480,nabire,-3.3667,135.4833,23.89,92,100,1.09,ID,1674930804
481,laurel,39.0993,-76.8483,13.31,43,0,4.12,US,1674930804
482,los llanos de aridane,28.6585,-17.9182,13.96,81,75,7.2,ES,1674930805
483,mackay,-21.15,149.2,24.27,80,46,4.75,AU,1674930630
484,mouila,-1.8685,11.0559,24.57,84,34,0.9,GA,1674930805
485,shache,38.4167,77.2406,-10.58,93,14,1.35,CN,1674930805
486,gat,31.61,34.7642,17.67,100,97,1.52,IL,1674930806
487,ambatondrazaka,-17.8333,48.4167,20.24,97,100,1.5,MG,1674930806
488,angoche,-16.2325,39.9086,26.47,85,78,1.68,MZ,1674930807
489,karratha,-20.7377,116.8463,29.41,57,100,2.15,AU,1674930807
490,campoverde,-8.4753,-74.8058,32.83,27,79,1.96,PE,1674930808
491,praya,14.9215,-23.5087,24.3,64,0,10.8,CV,1674930673
492,kaeo,-35.1,173.7833,21.29,97,100,3.17,NZ,1674930808
493,banda aceh,5.5577,95.3222,23.9,88,100,3.69,ID,1674930809
494,gamba,-2.65,10.0,25.54,78,94,1.76,GA,1674930809
495,port lincoln,-34.7333,135.8667,17.44,89,100,7.26,AU,1674930520
496,flin flon,54.7682,-101.865,-24.09,64,40,3.09,CA,1674930810
497,yumen,40.2833,97.2,-8.99,35,36,4.94,CN,1674930810
498,pio ix,-6.8375,-40.5792,31.96,33,95,2.0,BR,1674930811
499,morehead,37.2711,-87.1764,12.77,42,100,5.66,US,1674930811
500,mecca,21.4267,39.8261,25.0,51,1,1.06,SA,1674930413
501,lazaro cardenas,17.9583,-102.2,29.32,36,0,3.99,MX,1674930812
502,imeni poliny osipenko,52.4201,136.4853,-37.11,100,98,1.24,RU,1674930812
503,aklavik,68.2191,-135.0107,-28.0,76,0,4.63,CA,1674930812
504,ellesmere port,53.2788,-2.9013,7.33,92,100,1.54,GB,1674930813
505,puerto escondido,15.85,-97.0667,29.46,65,0,2.57,MX,1674930814
506,hofn,64.2539,-15.2082,4.66,87,100,3.88,IS,1674930814
507,half moon bay,37.4636,-122.4286,14.14,87,0,2.57,US,1674930815
508,dickinson,29.4608,-95.0513,22.8,79,100,8.75,US,1674930815
509,san quintin,30.4833,-115.95,15.67,51,4,2.84,MX,1674930816
510,kimbe,-5.5502,150.1429,24.65,91,89,0.79,PG,1674930816
511,baghdad,33.3406,44.4009,13.95,58,96,4.63,IQ,1674930816
512,sobolevo,54.4299,31.8996,-3.25,84,100,0.46,RU,1674930817
513,roebourne,-20.7833,117.1333,29.49,61,98,1.17,AU,1674930817
514,ulladulla,-35.35,150.4667,21.28,95,91,2.55,AU,1674930817
515,biak,-0.9131,122.8766,24.25,87,60,1.0,ID,1674930818
516,corning,42.1428,-77.0547,6.52,39,0,5.66,US,1674930601
517,vokhtoga,58.8147,41.0461,-14.01,98,81,3.04,RU,1674930818
518,nalut,30.3333,10.85,7.48,36,3,2.96,LY,1674930818
519,loreto,22.2667,-101.9667,20.1,18,68,7.08,MX,1674930819
520,kizukuri,40.8061,140.3861,-6.38,80,100,10.53,JP,1674930819
521,presidente medici,-11.1753,-61.9014,25.7,92,100,0.8,BR,1674930819
522,gwadar,25.1216,62.3254,19.12,59,98,3.4,PK,1674930820
523,ola,59.5833,151.2833,-19.37,85,100,3.79,RU,1674930820
524,talnakh,69.4865,88.3972,-18.63,98,100,2.69,RU,1674930821
525,namtsy,62.7161,129.6658,-51.02,100,79,0.83,RU,1674930821
526,puerto tejada,3.2311,-76.4167,29.97,47,25,0.73,CO,1674930821
527,rock sound,24.9,-76.2,23.54,78,100,10.74,BS,1674930822
528,landerneau,48.4525,-4.2525,6.55,73,100,3.09,FR,1674930641
529,shetpe,44.1667,52.1167,-1.35,52,5,3.73,KZ,1674930822
530,zhangye,38.9342,100.4517,-9.1,45,17,2.18,CN,1674930823
531,adiake,5.2863,-3.304,26.48,83,69,3.86,CI,1674930823
532,estelle,29.8458,-90.1067,21.11,52,20,9.26,US,1674930824
533,saint-augustin,51.226,-58.6502,-12.16,84,95,1.68,CA,1674930824
534,monrovia,6.3005,-10.7969,28.87,82,0,3.92,LR,1674930824
535,linxia,35.6003,103.2064,-8.29,68,1,0.79,CN,1674930825
536,florian,5.8049,-73.9703,23.56,58,51,2.07,CO,1674930825
537,vuktyl,63.8567,57.3094,-9.73,95,100,4.37,RU,1674930825
538,aranda de duero,41.6704,-3.6892,-0.42,84,10,6.21,ES,1674930826
539,dong hoi,17.4833,106.6,15.52,74,100,6.39,VN,1674930826
540,garissa,-0.4536,39.6401,30.67,27,0,3.2,KE,1674930827
541,acapulco,16.8634,-99.8901,29.9,58,0,1.54,MX,1674930663
542,vangaindrano,-23.35,47.6,24.94,93,89,3.91,MG,1674930827
543,key west,24.5557,-81.7826,26.0,93,40,6.17,US,1674930600
544,winchester,51.0651,-1.3187,5.29,76,75,1.54,GB,1674930828
545,sinnamary,5.3833,-52.95,26.03,74,52,4.13,GF,1674930828
546,derzhavinsk,51.1,66.3167,-12.32,88,100,5.22,KZ,1674930829
547,bayan,46.0833,127.4,-23.7,97,100,2.41,CN,1674930829
548,antofagasta,-23.65,-70.4,22.6,71,100,3.81,CL,1674930628
549,aksu,41.1231,80.2644,-10.68,88,100,2.09,CN,1674930830
550,ahipara,-35.1667,173.1667,19.88,95,94,3.09,NZ,1674930830
551,bavly,54.393,53.2602,-17.22,99,92,1.29,RU,1674930803
552,ambulu,-8.345,113.6058,23.3,94,100,0.39,ID,1674930832
553,canmore,51.0834,-115.3521,-14.29,61,99,2.57,CA,1674930629
554,sao sebastiao do passe,-12.5125,-38.4953,30.75,44,40,4.59,BR,1674930832
555,cockburn town,21.4612,-71.1419,24.65,62,6,8.87,TC,1674930833
556,dzaoudzi,-12.7887,45.2699,27.94,83,75,2.57,YT,1674930834
557,mapiripan,2.8892,-72.1256,34.23,27,6,5.27,CO,1674930834
558,linqiong,30.4159,103.4609,2.9,48,10,1.26,CN,1674930834
559,paamiut,61.994,-49.6678,-8.05,80,100,9.67,GL,1674930835
560,olkhovatka,50.2831,39.2872,-8.21,92,21,2.81,RU,1674930835
561,coihaique,-45.5752,-72.0662,23.34,46,40,5.14,CL,1674930836
562,calatayud,41.3535,-1.6432,0.83,77,8,2.89,ES,1674930836
563,bedele,8.456,36.353,17.68,34,84,1.94,ET,1674930836
564,krasnoye,49.9145,24.6134,-1.76,76,76,2.48,UA,1674930837
565,aktau,43.65,51.2,-1.68,55,0,5.92,KZ,1674930837
566,corlu,41.1592,27.8,2.99,75,75,6.17,TR,1674930838
567,olga,43.7444,135.2892,-19.06,66,0,4.86,RU,1674930838
568,sochaczew,52.2294,20.2384,0.14,86,18,2.77,PL,1674930838
569,pacific grove,36.6177,-121.9166,12.44,81,0,4.02,US,1674930839
570,pierre,44.3683,-100.351,-14.52,73,100,5.36,US,1674930839
571,dunedin,-45.8742,170.5036,13.78,79,5,0.89,NZ,1674930700
