City_ID,City,Lat,Lng,Max Temp,Humidity,Cloudiness,Wind Speed,Country,Date
0,fujin,47.26,132.0322,-30.43,95,49,3.25,CN,1674848380
1,thinadhoo,0.5333,72.9333,27.28,75,49,2.7,MV,1674848381
2,methoni,36.8197,21.7049,10.68,78,42,2.09,GR,1674848381
3,cuauhtemoc,28.4167,-106.8667,13.3,16,100,2.55,MX,1674848382
4,santa maria,-29.6842,-53.8069,32.61,52,40,6.17,BR,1674848286
5,galesong,-5.3166,119.3661,24.01,90,100,4.63,ID,1674848382
6,xique-xique,-10.8218,-42.7263,30.26,46,80,0.89,BR,1674848383
7,znamenskoye,57.1281,73.8282,-5.63,96,100,3.52,RU,1674848383
8,iqaluit,63.7506,-68.5145,-34.15,68,20,6.17,CA,1674848383
9,altay,47.8667,88.1167,-16.15,63,1,2.71,CN,1674848384
10,cap malheureux,-19.9842,57.6142,25.82,90,100,2.98,MU,1674848384
11,mardin,37.3131,40.7436,4.59,42,40,2.06,TR,1674848384
12,charyshskoye,51.3978,83.5598,-11.04,83,100,2.44,RU,1674848385
13,juana diaz,18.0525,-66.5066,27.48,74,75,5.1,PR,1674848385
14,ushuaia,-54.8,-68.3,12.81,62,75,8.75,AR,1674848386
15,bluff,-46.6,168.3333,10.73,72,2,2.62,NZ,1674848386
16,mesyagutovo,55.5303,58.2528,-8.68,88,100,7.52,RU,1674848387
17,chuy,-33.6971,-53.4616,27.26,69,86,5.92,UY,1674848387
18,kapaa,22.0752,-159.319,21.99,66,84,1.34,US,1674848388
19,dina,52.9335,-110.0849,-14.77,84,100,3.88,CA,1674848388
20,carnarvon,-24.8667,113.6333,23.45,69,0,9.9,AU,1674848388
21,vestmannaeyjar,63.4427,-20.2734,4.8,62,100,12.87,IS,1674848389
22,rikitea,-23.1203,-134.9692,26.04,74,41,5.75,PF,1674848389
23,dikson,73.5069,80.5464,-20.92,94,100,5.83,RU,1674848389
24,puerto colombia,10.9878,-74.9547,29.05,70,32,10.48,CO,1674848390
25,penzance,50.1186,-5.5371,4.38,71,79,4.56,GB,1674848390
26,mataura,-46.1927,168.8643,11.26,66,1,1.33,NZ,1674848391
27,yulara,-25.2406,130.9889,24.58,71,100,2.29,AU,1674848391
28,bethel,41.3712,-73.414,5.52,54,100,0.45,US,1674848147
29,cape town,-33.9258,18.4232,21.17,76,0,8.75,ZA,1674848343
30,hambantota,6.1241,81.1185,24.12,82,100,5.08,LK,1674848392
31,port elizabeth,-33.918,25.5701,24.5,91,75,4.63,ZA,1674848392
32,nanortalik,60.1432,-45.2371,1.15,96,100,8.13,GL,1674848393
33,albany,42.6001,-73.9662,2.42,72,100,1.25,US,1674848135
34,sitka,57.0531,-135.33,4.94,87,75,3.09,US,1674848393
35,carbondale,37.7273,-89.2168,10.03,57,0,12.35,US,1674848394
36,punta arenas,-53.15,-70.9167,15.06,51,75,13.38,CL,1674848394
37,shunyi,40.125,116.6453,-2.03,24,0,5.0,CN,1674848394
38,lebu,-37.6167,-73.65,16.51,68,2,8.42,CL,1674848395
39,petropavlovsk-kamchatskiy,53.0452,158.6483,-4.67,68,75,5.0,RU,1674848395
40,kosa,59.9445,54.9977,-5.43,95,100,3.21,RU,1674848396
41,pangoa,-12.1167,-73.0,26.72,64,65,2.3,PE,1674848397
42,itoman,26.1247,127.6694,12.01,54,75,11.83,JP,1674848397
43,klaksvik,62.2266,-6.589,5.51,73,86,15.04,FO,1674848397
44,saskylakh,71.9167,114.0833,-38.43,93,18,4.26,RU,1674848398
45,jiuquan,39.7432,98.5174,-12.75,60,30,2.32,CN,1674848398
46,mount isa,-20.7333,139.5,23.87,73,20,0.0,AU,1674848399
47,goderich,43.7501,-81.7165,-1.72,74,100,8.75,CA,1674848399
48,baculin,7.4525,126.5842,24.71,87,100,2.32,PH,1674848400
49,touros,-5.1989,-35.4608,28.01,68,0,6.17,BR,1674848400
50,adre,13.4667,22.2,23.82,13,17,3.54,TD,1674848400
51,la asuncion,11.0333,-63.8628,25.44,69,22,5.85,VE,1674848401
52,hilo,19.7297,-155.09,23.4,86,75,4.63,US,1674848379
53,sergeyevka,53.88,67.4158,-8.77,94,97,6.22,KZ,1674848402
54,butaritari,3.0707,172.7902,27.37,77,12,7.72,KI,1674848402
55,trelew,-43.249,-65.3051,26.62,16,0,2.05,AR,1674848403
56,kikwit,-5.041,18.8162,22.74,87,58,1.13,CD,1674848403
57,arraial do cabo,-22.9661,-42.0278,28.98,74,40,7.2,BR,1674848404
58,hermanus,-34.4187,19.2345,21.56,87,1,1.59,ZA,1674848404
59,hithadhoo,-0.6,73.0833,27.22,76,66,3.03,MV,1674848405
60,camana,-16.6228,-72.7111,24.6,75,99,3.28,PE,1674848405
61,opuwo,-18.0607,13.84,22.42,63,76,4.22,NA,1674848405
62,aklavik,68.2191,-135.0107,-26.0,76,75,2.06,CA,1674848406
63,westport,41.1415,-73.3579,6.62,58,100,4.63,US,1674848406
64,ihosy,-22.4,46.1167,20.79,94,100,3.46,MG,1674848407
65,pevek,69.7008,170.3133,-26.14,86,100,1.66,RU,1674848407
66,vaini,-21.2,-175.2,25.09,94,100,1.03,TO,1674848408
67,clyde river,70.4692,-68.5914,-25.87,70,100,10.29,CA,1674848408
68,asfi,32.2994,-9.2372,14.38,56,100,5.22,MA,1674848409
69,naifaru,5.4444,73.3657,26.94,75,11,5.51,MV,1674848409
70,tulum,20.2167,-87.4667,22.67,93,98,3.63,MX,1674848410
71,le mars,42.7942,-96.1656,-2.27,86,100,6.69,US,1674848410
72,provideniya,64.3833,-173.3,-16.15,95,51,6.84,RU,1674848411
73,russell,32.3502,-85.1999,11.67,40,40,3.09,US,1674848411
74,torbay,47.6666,-52.7314,5.32,80,75,11.32,CA,1674848412
75,san patricio,28.017,-97.5169,17.13,66,100,3.09,US,1674848412
76,isla mujeres,21.2311,-86.731,22.03,84,94,9.33,MX,1674848413
77,aykino,62.2248,49.9922,-12.02,96,51,2.55,RU,1674848413
78,jamestown,42.097,-79.2353,-2.23,73,100,7.2,US,1674848266
79,maine-soroa,13.2114,12.0241,26.81,11,8,4.16,NE,1674848414
80,grindavik,63.8424,-22.4338,3.26,65,75,14.4,IS,1674848414
81,mar del plata,-38.0023,-57.5575,23.01,88,75,6.17,AR,1674848415
82,faanui,-16.4833,-151.75,27.04,75,12,6.05,PF,1674848415
83,vila franca do campo,37.7167,-25.4333,13.23,79,78,3.95,PT,1674848416
84,souillac,-20.5167,57.5167,25.21,94,75,1.03,MU,1674848416
85,lander,42.833,-108.7307,3.1,65,0,3.6,US,1674848417
86,maketu,-37.7667,176.45,22.23,100,100,8.26,NZ,1674848417
87,broken hill,-31.95,141.4333,24.62,19,24,5.47,AU,1674848418
88,busselton,-33.65,115.3333,11.07,82,0,4.86,AU,1674848418
89,griffith,41.5284,-87.4237,0.5,88,100,7.72,US,1674848419
90,quelimane,-17.8786,36.8883,26.97,83,20,0.0,MZ,1674848419
91,georgetown,5.4112,100.3354,26.96,82,20,2.57,MY,1674848162
92,leshukonskoye,64.8989,45.7622,-9.34,96,96,3.42,RU,1674848420
93,barcelos,41.5388,-8.6151,9.91,79,1,3.9,PT,1674848421
94,guntakal,15.1667,77.3833,19.58,57,0,3.28,IN,1674848421
95,codrington,-38.2667,141.9667,25.06,22,100,8.04,AU,1674848421
96,saint-philippe,-21.3585,55.7679,26.77,88,82,1.79,RE,1674848422
97,yenagoa,4.9247,6.2642,27.02,76,21,3.48,NG,1674848422
98,ust-nera,64.5667,143.2,-36.07,100,95,0.69,RU,1674848423
99,faya,18.3851,42.4509,12.06,73,2,0.77,SA,1674848423
100,avarua,-21.2078,-159.775,28.03,78,20,3.6,CK,1674848236
101,severo-kurilsk,50.6789,156.125,-3.44,84,95,12.58,RU,1674848424
102,kieta,-6.2167,155.6333,25.72,83,60,0.12,PG,1674848425
103,saint anthony,45.0205,-93.218,-5.22,72,20,8.75,US,1674848425
104,ramos arizpe,25.55,-100.9667,15.46,61,75,0.0,MX,1674848425
105,gwanda,-20.9333,29.0,21.57,51,95,2.3,ZW,1674848426
106,matara,5.9485,80.5353,23.47,87,100,1.86,LK,1674848426
107,zaltan,32.947,11.8665,10.97,44,4,6.21,LY,1674848427
108,san isidro,-12.1167,-77.05,23.77,69,0,5.66,PE,1674848427
109,luancheng,37.8792,114.6517,-7.91,20,0,2.33,CN,1674848428
110,san gabriel,34.0961,-118.1058,21.91,30,0,1.54,US,1674848428
111,tasiilaq,65.6145,-37.6368,-5.91,66,100,3.34,GL,1674848429
112,kodiak,57.79,-152.4072,-0.27,86,100,2.06,US,1674848429
113,tocopilla,-22.092,-70.1979,23.31,74,91,4.13,CL,1674847907
114,new norfolk,-42.7826,147.0587,17.72,61,100,1.62,AU,1674848430
115,aswan,24.0934,32.907,22.61,26,0,2.06,EG,1674848430
116,atuona,-9.8,-139.0333,26.08,74,67,9.29,PF,1674848431
117,puerto escondido,15.85,-97.0667,29.46,61,0,2.57,MX,1674848431
118,khatanga,71.9667,102.5,-23.19,88,100,7.64,RU,1674848432
119,ponta do sol,32.6667,-17.1,16.35,66,27,3.95,PT,1674848432
120,chitral,35.8462,71.7858,-2.86,42,69,3.62,PK,1674848433
121,lavrentiya,65.5833,-171.0,-18.48,98,84,3.25,RU,1674848433
122,las palmas,28.4204,-14.0131,15.44,67,40,7.2,ES,1674848434
123,ornskoldsvik,63.2909,18.7153,-1.47,80,40,2.57,SE,1674848434
124,kaitangata,-46.2817,169.8464,11.54,65,2,1.1,NZ,1674848434
125,qaanaaq,77.484,-69.3632,-18.52,94,100,2.34,GL,1674848435
126,narsaq,60.9167,-46.05,2.12,97,100,7.26,GL,1674848435
127,inongo,-1.95,18.2667,22.81,89,100,2.49,CD,1674848436
128,shizilu,35.1711,118.8289,-5.67,37,0,2.4,CN,1674848436
129,nikolskoye,59.7035,30.7861,-2.06,97,28,1.13,RU,1674848436
130,oranjemund,-28.55,16.4333,17.29,95,4,3.59,NA,1674848437
131,atbasar,51.8,68.3333,-12.97,83,11,6.91,KZ,1674848437
132,fremont,37.5483,-121.9886,17.05,63,0,2.06,US,1674848422
133,katobu,-4.9408,122.5276,24.27,91,95,0.7,ID,1674848438
134,bambous virieux,-20.3428,57.7575,25.68,94,75,1.03,MU,1674848438
135,itarema,-2.9248,-39.9167,27.42,71,100,5.92,BR,1674848439
136,buala,-8.145,159.5921,26.68,81,70,2.09,SB,1674848439
137,yar-sale,66.8333,70.8333,-16.59,98,35,3.01,RU,1674848439
138,hobart,-42.8794,147.3294,17.92,67,75,6.69,AU,1674848440
139,pringsewu,-5.3582,104.9744,23.58,95,100,0.49,ID,1674848440
140,port alfred,-33.5906,26.891,21.21,90,0,0.89,ZA,1674848441
141,akdepe,42.0551,59.3788,-6.95,53,0,2.7,TM,1674848441
142,acapulco,16.8634,-99.8901,28.9,65,0,3.09,MX,1674848162
143,castro,-24.7911,-50.0119,26.65,58,10,2.1,BR,1674848441
144,beloha,-25.1667,45.05,23.66,93,100,5.89,MG,1674848442
145,gold coast,-28.0,153.4333,23.33,97,68,1.03,AU,1674848297
146,honningsvag,70.9821,25.9704,0.86,93,100,9.26,NO,1674848442
147,port hardy,50.6996,-127.4199,7.1,87,75,4.63,CA,1674848443
148,laguna,38.421,-121.4238,17.58,63,0,1.54,US,1674848443
149,bonito,-21.1211,-56.4819,35.5,31,23,1.12,BR,1674848444
150,moose factory,51.2585,-80.6094,-16.0,71,40,4.63,CA,1674848444
151,ribeira grande,38.5167,-28.7,14.22,72,75,5.36,PT,1674848444
152,esperance,-33.8667,121.9,16.11,59,74,2.91,AU,1674848445
153,palafrugell,41.9174,3.1631,7.48,35,47,4.47,ES,1674848445
154,chokurdakh,70.6333,147.9167,-29.72,97,5,4.09,RU,1674848445
155,bredasdorp,-34.5322,20.0403,19.29,80,2,1.1,ZA,1674848446
156,mahebourg,-20.4081,57.7,25.7,94,75,1.03,MU,1674848447
157,yellowknife,62.456,-114.3525,-27.47,76,20,6.71,CA,1674848272
158,hampton,37.0299,-76.3452,9.47,44,75,6.17,US,1674848217
159,lobito,-12.3481,13.5456,26.37,80,62,0.54,AO,1674848447
160,bengkulu,-3.8004,102.2655,24.34,88,100,5.75,ID,1674848448
161,teguldet,57.3064,88.1667,-9.77,92,100,4.75,RU,1674848448
162,maltahohe,-24.8333,16.9833,26.36,37,100,5.36,NA,1674848448
163,road town,18.4167,-64.6167,28.05,57,20,4.12,VG,1674848449
164,the valley,18.217,-63.0578,27.92,47,20,5.14,AI,1674848449
165,bubaque,11.2833,-15.8333,25.08,73,60,5.14,GW,1674848449
166,victoria,22.2855,114.1577,12.96,34,99,7.6,HK,1674848450
167,makakilo city,21.3469,-158.0858,23.18,63,0,5.66,US,1674848450
168,longyearbyen,78.2186,15.6401,-9.09,67,100,12.35,SJ,1674848451
169,paamiut,61.994,-49.6678,2.18,75,100,20.15,GL,1674848451
170,grand baie,-20.0182,57.5802,25.81,90,100,2.8,MU,1674848452
171,samarai,-10.6167,150.6667,27.83,79,99,5.73,PG,1674848452
172,ahuimanu,21.4447,-157.8378,23.84,69,75,6.69,US,1674848452
173,pitiquito,30.7,-112.0833,17.02,18,73,0.14,MX,1674848453
174,gondanglegi,-7.7479,112.0132,23.81,92,100,1.61,ID,1674848453
175,lompoc,34.6391,-120.4579,17.79,56,0,4.92,US,1674848454
176,qasigiannguit,68.8193,-51.1922,-11.86,68,100,5.27,GL,1674848454
177,beringovskiy,63.05,179.3167,-10.83,95,100,1.43,RU,1674848454
178,aasiaat,68.7098,-52.8699,-13.22,64,100,12.16,GL,1674848455
179,pangnirtung,66.1451,-65.7125,-29.0,76,40,6.17,CA,1674848455
180,yuli,9.6989,10.2744,28.7,13,100,1.2,NG,1674848456
181,leningradskiy,69.3833,178.4167,-26.95,96,91,4.03,RU,1674848456
182,namibe,-15.1961,12.1522,23.25,79,98,1.22,AO,1674848456
183,solnechnyy,50.7214,136.6319,-31.85,99,94,0.99,RU,1674848457
184,kahului,20.8947,-156.47,22.01,96,75,8.23,US,1674848457
185,inuvik,68.3499,-133.7218,-31.44,75,20,1.03,CA,1674848458
186,shirokiy,49.758,129.523,-39.36,100,58,1.97,RU,1674848458
187,tottori,35.5,134.2333,0.52,97,100,5.75,JP,1674848458
188,haapiti,-17.5667,-149.8667,29.85,73,3,6.16,PF,1674848459
189,iki-burul,45.8208,44.6472,-3.69,86,8,4.58,RU,1674848459
190,puerto ayora,-0.7393,-90.3518,27.98,91,61,3.13,EC,1674848460
191,bago,17.3367,96.4797,21.64,61,0,1.4,MM,1674848460
192,deer lake,49.1667,-57.4316,-2.08,74,100,8.23,CA,1674848460
193,la ronge,55.1001,-105.2842,-22.86,45,20,5.66,CA,1674848461
194,linhares,-19.3911,-40.0722,27.15,76,24,3.85,BR,1674848178
195,sao filipe,14.8961,-24.4956,23.79,74,17,3.86,CV,1674848462
196,tuktoyaktuk,69.4541,-133.0374,-33.0,75,75,4.12,CA,1674848462
197,san pedro zacapa,14.75,-88.1167,29.18,47,41,3.23,HN,1674848463
198,inhambane,-23.865,35.3833,26.99,74,20,6.17,MZ,1674848463
199,temryuk,45.2722,37.3811,3.12,56,76,5.25,RU,1674848463
200,delta del tigre,-34.7633,-56.3853,29.06,65,100,5.14,UY,1674848464
201,jequie,-13.8575,-40.0836,27.66,63,94,0.94,BR,1674848464
202,bitung,1.4451,125.1824,24.47,86,100,2.86,ID,1674848465
203,vuktyl,63.8567,57.3094,-9.77,95,97,3.46,RU,1674848465
204,ahipara,-35.1667,173.1667,20.56,96,100,1.63,NZ,1674848466
205,trincomalee,8.5711,81.2335,25.3,74,100,5.89,LK,1674848466
206,kalanguy,51.0167,116.5167,-24.32,100,100,1.12,RU,1674848466
207,dunedin,-45.8742,170.5036,13.22,73,1,0.45,NZ,1674848317
208,itacare,-14.2775,-38.9967,27.23,74,20,4.13,BR,1674848467
209,muzhi,65.3667,64.6667,-7.86,79,100,5.56,RU,1674848467
210,sepuka,-4.75,34.5333,17.79,69,47,2.74,TZ,1674848468
211,komsomolskiy,40.4272,71.7189,-4.6,80,92,3.09,UZ,1674848468
212,polewali,-3.4324,119.3435,24.54,89,100,1.82,ID,1674848469
213,san quintin,30.4833,-115.95,17.2,28,79,2.49,MX,1674848469
214,saa,4.3667,11.45,25.67,69,75,3.9,CM,1674848470
215,hobyo,5.3505,48.5268,24.66,74,4,7.12,SO,1674848470
216,hasaki,35.7333,140.8333,-0.78,60,76,8.68,JP,1674848470
217,okhotsk,59.3833,143.3,-22.1,75,100,6.7,RU,1674848471
218,barrow,71.2906,-156.7887,-29.99,76,0,4.63,US,1674848471
219,new iberia,30.0035,-91.8187,15.04,35,0,2.57,US,1674848472
220,awjilah,29.1081,21.2869,14.39,53,0,5.46,LY,1674848472
221,hanna,51.6334,-111.9018,-10.33,87,100,5.16,CA,1674848473
222,avera,33.194,-82.5271,10.73,40,100,4.89,US,1674848473
223,khuzdar,27.7384,66.6434,9.24,30,90,1.92,PK,1674848474
224,tuatapere,-46.1333,167.6833,11.46,68,4,1.86,NZ,1674848474
225,gazli,40.1333,63.45,-2.41,68,0,3.08,UZ,1674848475
226,guipavas,48.4352,-4.3972,7.26,77,100,4.63,FR,1674848475
227,tessalit,20.1986,1.0114,16.01,12,41,3.99,ML,1674848475
228,coahuayana,18.7333,-103.6833,31.65,25,100,3.22,MX,1674848476
229,guerrero negro,27.9769,-114.0611,18.2,23,100,0.21,MX,1674848476
230,ambilobe,-13.2,49.05,23.68,94,14,0.27,MG,1674848477
231,dehloran,32.6941,47.2679,11.58,40,0,2.58,IR,1674848477
232,sangar,63.9242,127.4739,-48.14,100,77,0.45,RU,1674848478
233,boyuibe,-20.4167,-63.2833,33.89,37,83,4.63,BO,1674848478
234,kedrovyy,56.1667,91.8167,-7.77,93,100,5.12,RU,1674848479
235,asau,46.4333,26.4,-3.49,96,100,3.1,RO,1674848479
236,povenets,62.8487,34.8262,-14.17,96,46,2.08,RU,1674848480
237,kaeo,-35.1,173.7833,21.29,97,95,2.92,NZ,1674848480
238,santiago del estero,-27.7951,-64.2615,40.63,24,88,6.62,AR,1674848432
239,peace river,56.2501,-117.286,-10.83,72,75,5.14,CA,1674848476
240,chocope,-7.7914,-79.2217,22.47,54,54,5.33,PE,1674848481
241,katsuura,35.1333,140.3,2.14,69,11,5.91,JP,1674848481
242,alofi,-19.0595,-169.9187,26.94,89,93,2.57,NU,1674848482
243,muisne,0.6,-80.0333,27.23,75,60,4.42,EC,1674848482
244,krasnoarmeysk,51.0239,45.6969,-11.92,85,67,2.36,RU,1674848483
245,tura,25.5198,90.2201,16.23,66,17,0.96,IN,1674848483
246,kavieng,-2.5744,150.7967,27.38,78,90,5.1,PG,1674848483
247,kedougou,12.5579,-12.1743,31.87,14,85,2.02,SN,1674848484
248,disraeli,45.9001,-71.3491,-5.62,89,91,2.79,CA,1674848484
249,katherine,-14.4667,132.2667,26.18,83,100,0.51,AU,1674848485
250,upernavik,72.7868,-56.1549,-22.21,91,6,2.77,GL,1674848485
251,marsh harbour,26.5412,-77.0636,22.04,72,95,8.06,BS,1674848485
252,forest,37.3638,-79.2897,7.21,36,0,3.6,US,1674848486
253,luanda,-8.8368,13.2343,27.0,78,75,2.57,AO,1674848486
254,lagoa,39.05,-27.9833,14.22,63,99,6.56,PT,1674848487
255,dingle,10.9995,122.6711,23.54,94,100,3.61,PH,1674848487
256,cururupu,-1.8283,-44.8683,26.92,78,66,1.97,BR,1674848488
257,timmins,48.4669,-81.3331,-9.1,73,100,6.17,CA,1674848488
258,bethanien,-26.502,17.1583,29.29,29,100,2.09,NA,1674848488
259,auki,-8.7676,160.7034,24.91,85,74,1.43,SB,1674848489
260,saint-pierre,-21.3393,55.4781,26.82,78,0,1.03,RE,1674848489
261,alice springs,-23.7,133.8833,24.75,73,100,3.6,AU,1674848490
262,utete,-7.986,38.758,23.19,89,56,1.77,TZ,1674848490
263,hammerfest,70.6634,23.6821,3.25,81,75,5.14,NO,1674848491
264,cidreira,-30.1811,-50.2056,27.0,70,6,6.97,BR,1674848491
265,mulgund,15.25,75.5333,20.0,45,0,3.53,IN,1674848492
266,narovchat,53.8765,43.6946,-11.0,97,54,2.59,RU,1674848492
267,omboue,-1.5746,9.2618,25.75,85,100,3.46,GA,1674848492
268,freeport,40.6576,-73.5832,7.21,50,75,6.69,US,1674848493
269,grajau,-5.8194,-46.1386,27.67,76,41,1.24,BR,1674848493
270,marystown,47.1666,-55.1483,0.58,80,97,10.19,CA,1674848494
271,mezen,65.8522,44.24,-8.6,97,94,2.7,RU,1674848494
272,fare,-16.7,-151.0167,26.95,75,2,6.2,PF,1674848494
273,fort frances,48.5999,-93.4003,-10.88,76,100,10.29,CA,1674848425
274,perigueux,45.1833,0.7167,4.67,79,95,3.61,FR,1674848495
275,kushmurun,52.4503,64.6311,-11.41,87,90,5.47,KZ,1674848495
276,naze,28.3667,129.4833,7.51,65,94,8.54,JP,1674848496
277,palmer,42.1584,-72.3287,5.48,50,75,2.06,US,1674848496
278,laramie,41.3114,-105.5911,1.96,60,0,10.8,US,1674848421
279,briancon,44.9,6.65,-2.8,96,54,1.01,FR,1674848497
280,beberibe,-4.1797,-38.1306,27.25,73,100,4.13,BR,1674848427
281,sibolga,1.7427,98.7792,23.54,91,100,1.77,ID,1674848497
282,rawson,-43.3002,-65.1023,22.46,33,0,2.35,AR,1674848498
283,dhidhdhoo,6.8833,73.1,26.74,74,15,4.56,MV,1674848498
284,talnakh,69.4865,88.3972,-15.44,96,100,3.82,RU,1674848499
285,tiksi,71.6872,128.8694,-38.58,100,97,1.27,RU,1674848499
286,nehe,48.4833,124.8333,-34.64,100,29,0.91,CN,1674848500
287,ketchikan,55.3422,-131.6461,5.26,81,40,4.12,US,1674848500
288,strezhevoy,60.7333,77.5889,-6.82,95,100,3.6,RU,1674848500
289,santa marta,11.2408,-74.199,31.03,58,20,9.39,CO,1674848501
290,cabo san lucas,22.8909,-109.9124,24.78,53,40,5.14,MX,1674848215
291,chicama,-7.8447,-79.1469,22.3,56,51,4.84,PE,1674848501
292,cherskiy,68.75,161.3,-27.49,88,100,1.69,RU,1674848502
293,honiara,-9.4333,159.95,25.21,84,71,1.76,SB,1674848502
294,ubauro,28.1652,69.7289,14.54,16,99,2.49,PK,1674848503
295,caravelas,-17.7125,-39.2481,26.68,75,100,3.39,BR,1674848503
296,kavaratti,10.5669,72.642,26.42,71,67,1.15,IN,1674848503
297,fortuna,40.5982,-124.1573,10.37,94,99,0.45,US,1674848246
298,kirensk,57.7853,108.1119,-8.03,91,100,4.05,RU,1674848504
299,padang,-0.9492,100.3543,22.03,91,100,2.37,ID,1674848505
300,agua dulce,18.1333,-94.1333,22.9,86,72,7.26,MX,1674848505
301,tongling,30.95,117.7833,-0.33,46,0,1.19,CN,1674848505
302,presidencia roque saenz pena,-26.7852,-60.4388,38.09,31,56,5.87,AR,1674848506
303,verkhoyansk,67.5447,133.385,-44.89,100,100,1.01,RU,1674848506
304,pisco,-13.7,-76.2167,25.03,78,0,3.09,PE,1674848507
305,santa cruz,-17.8,-63.1667,29.03,70,75,6.69,BO,1674848420
306,anadyr,64.75,177.4833,-16.62,95,100,2.18,RU,1674848508
307,mareeba,-17.0,145.4333,23.58,97,100,1.64,AU,1674848508
308,lasa,46.6166,10.7002,-1.51,83,99,2.14,IT,1674848509
309,shestakovo,56.4915,103.96,-7.87,90,100,4.72,RU,1674848509
310,peniche,39.3558,-9.3811,10.52,79,0,7.73,PT,1674848509
311,kissamos,35.4939,23.6569,14.39,73,89,8.62,GR,1674848510
312,george,-33.963,22.4617,20.75,94,75,2.06,ZA,1674848510
313,yeppoon,-23.1333,150.7333,22.88,84,74,4.3,AU,1674848511
314,asosa,10.0667,34.5333,20.91,19,54,1.95,ET,1674848511
315,airai,-8.9266,125.4092,16.15,90,100,0.69,TL,1674848512
316,ostrovnoy,68.0531,39.5131,-6.74,89,99,5.88,RU,1674848512
317,constitucion,-35.3333,-72.4167,19.5,58,0,9.23,CL,1674848457
318,geraldton,-28.7667,114.6,17.23,82,0,3.09,AU,1674848512
319,coihaique,-45.5752,-72.0662,17.34,45,75,3.09,CL,1674848513
320,kyabe,9.4515,18.9449,29.32,14,24,1.13,TD,1674848513
321,mao,39.8885,4.2658,7.31,65,20,7.2,ES,1674848514
322,meulaboh,4.1363,96.1285,22.95,94,100,2.79,ID,1674848514
323,rio gallegos,-51.6226,-69.2181,22.03,24,75,7.72,AR,1674848512
324,irbeyskoye,55.6428,95.4522,-6.22,91,100,6.66,RU,1674848515
325,eyl,7.9803,49.8164,23.88,73,0,6.61,SO,1674848515
326,plyussa,58.4308,29.3654,-8.01,98,60,0.76,RU,1674848515
327,boda,4.3189,17.4695,27.09,21,100,1.5,CF,1674848516
328,victor harbor,-35.5667,138.6167,23.71,58,100,5.32,AU,1674848516
329,vardo,70.3705,31.1107,-0.01,86,75,6.69,NO,1674848517
330,lata,40.1629,-8.3327,5.51,79,4,1.53,PT,1674848517
331,popondetta,-8.7537,148.2534,23.08,91,94,1.15,PG,1674848518
332,ancud,-41.8697,-73.8203,16.12,62,18,5.43,CL,1674848518
333,flin flon,54.7682,-101.865,-24.09,58,0,5.14,CA,1674848519
334,port-gentil,-0.7193,8.7815,27.98,78,40,3.09,GA,1674848519
335,gat,31.61,34.7642,21.55,32,94,6.19,IL,1674848519
336,conceicao do araguaia,-8.2578,-49.2647,27.26,78,100,1.32,BR,1674848520
337,olafsvik,64.8945,-23.7142,2.75,62,100,12.99,IS,1674848520
338,loanda,-8.8368,13.2343,27.0,78,75,2.57,AO,1674848496
339,east london,-33.0153,27.9116,24.25,85,34,6.61,ZA,1674848521
340,north bend,43.4065,-124.2243,8.42,99,100,3.6,US,1674848521
341,norcasia,5.5778,-74.8852,29.68,53,60,1.89,CO,1674848522
342,roebourne,-20.7833,117.1333,28.64,74,11,2.79,AU,1674848522
343,boende,-0.2167,20.8667,24.1,69,52,1.46,CD,1674848523
344,chumikan,54.7183,135.315,-30.39,89,87,8.04,RU,1674848523
345,kropotkin,45.4375,40.5756,-0.13,69,1,4.63,RU,1674848524
346,aykhal,66.0,111.5,-33.72,100,100,2.64,RU,1674848524
347,beidao,34.5686,105.8933,-3.01,29,100,0.2,CN,1674848525
348,carnot,4.9409,15.8665,25.97,20,88,1.67,CF,1674848525
349,hamilton,39.1834,-84.5333,5.61,60,0,9.77,US,1674847773
350,pontianak,-0.0333,109.3333,24.99,100,75,1.03,ID,1674848526
351,mahon,39.8885,4.2658,7.31,65,20,7.2,ES,1674848527
352,taoudenni,22.6783,-3.9836,14.99,15,1,3.72,ML,1674848527
353,iroquois falls,48.7669,-80.6831,-8.1,89,100,5.66,CA,1674848528
354,deputatskiy,69.3,139.9,-33.4,85,13,0.96,RU,1674848528
355,miri,4.4148,114.0089,24.08,94,40,1.03,MY,1674848529
356,nantucket,41.2835,-70.0995,5.08,59,0,6.17,US,1674848279
357,la grande,45.3246,-118.0877,4.43,85,100,4.31,US,1674848529
358,manokwari,-0.8667,134.0833,25.37,83,100,1.92,ID,1674848529
359,korla,41.7597,86.1469,-10.39,70,1,0.95,CN,1674848530
360,curico,-34.9833,-71.2333,30.06,21,0,1.54,CL,1674848531
361,ulladulla,-35.35,150.4667,19.42,91,3,1.49,AU,1674848531
362,mineiros,-17.5694,-52.5511,24.18,81,87,4.92,BR,1674848532
363,kazachinskoye,57.6953,93.2761,-9.19,88,94,4.44,RU,1674848532
364,erzin,36.9559,36.2,11.21,47,94,4.84,TR,1674848532
365,diamantino,-14.4086,-56.4461,22.73,95,100,3.42,BR,1674848533
366,cayenne,4.9333,-52.3333,26.02,73,100,3.09,GF,1674848533
367,flinders,-34.5833,150.8552,20.1,91,5,1.79,AU,1674848534
368,cockburn town,21.4612,-71.1419,26.98,61,40,7.72,TC,1674848535
369,nelson bay,-32.7167,152.15,23.89,97,14,1.79,AU,1674848535
370,mecca,21.4267,39.8261,23.17,58,1,1.16,SA,1674848320
371,saldanha,-33.0117,17.9442,20.03,90,0,7.44,ZA,1674848536
372,west wendover,40.7391,-114.0733,1.56,75,20,3.6,US,1674848277
373,asmara,15.3333,38.9333,11.24,75,41,1.46,ER,1674848536
374,ati,13.2154,18.3353,27.08,12,56,3.67,TD,1674848537
375,koungou,-12.7336,45.2042,27.84,83,20,5.66,YT,1674848537
376,carmen,18.6333,-91.8333,23.02,83,100,5.66,MX,1674848243
377,nouadhibou,20.931,-17.0347,20.99,49,100,6.69,MR,1674848538
378,corinto,37.9407,22.9573,8.83,79,100,0.24,GR,1674848298
379,salekhard,66.53,66.6019,-10.68,92,100,3.67,RU,1674848538
380,yablonovo,50.8523,37.3574,-4.4,72,100,3.24,RU,1674848539
381,port macquarie,-31.4333,152.9167,18.27,90,41,1.84,AU,1674848539
382,villa rica,33.7321,-84.9191,10.99,42,15,4.09,US,1674848540
383,mehamn,71.0357,27.8492,0.97,93,75,7.72,NO,1674848351
384,arlit,18.7369,7.3853,22.6,12,55,3.84,NE,1674848540
385,ilulissat,69.2167,-51.1,-11.99,56,75,11.83,GL,1674848541
386,panguma,8.1833,-11.1333,26.6,63,6,2.41,SL,1674848541
387,suntar,62.1444,117.6319,-40.43,100,73,1.4,RU,1674848542
388,vammala,61.3333,22.9,-2.46,90,27,3.48,FI,1674848542
389,kutum,14.2,24.6667,20.17,12,17,3.25,SD,1674848543
390,nabire,-3.3667,135.4833,23.74,94,100,1.47,ID,1674848543
391,dandong,40.1292,124.3947,-15.5,82,18,1.32,CN,1674848544
392,tumsar,21.3833,79.7333,19.38,62,0,4.3,IN,1674848544
393,navahrudak,53.6,25.8333,-3.57,99,98,1.79,BY,1674848544
394,coelho neto,-4.2567,-43.0128,26.81,74,100,1.29,BR,1674848434
395,bari,41.1177,16.8512,8.15,86,75,4.92,IT,1674848545
396,dawei,14.0833,98.2,22.13,54,99,2.49,MM,1674848545
397,edson,53.5835,-116.4356,-3.92,74,100,6.17,CA,1674848546
398,baishishan,43.5833,127.5667,-22.01,92,86,1.24,CN,1674848546
399,fairbanks,64.8378,-147.7164,-19.95,80,0,0.0,US,1674848547
400,karatau,43.1667,70.4667,-10.54,76,49,1.41,KZ,1674848547
401,sao joao do paraiso,-15.3136,-42.0144,24.06,76,96,3.19,BR,1674848548
402,sadove,46.2487,30.1795,3.27,75,100,8.44,UA,1674848548
403,varnavino,57.4035,45.0916,-3.65,96,100,2.37,RU,1674848548
404,nosy varika,-20.5833,48.5333,25.18,91,93,2.14,MG,1674848549
405,antalaha,-14.9003,50.2788,24.59,87,87,1.49,MG,1674848549
406,egvekinot,66.3167,-179.1667,-21.39,90,94,3.96,RU,1674848550
407,carballo,43.213,-8.691,8.89,85,50,3.83,ES,1674848550
408,chittaurgarh,24.8833,74.6333,9.8,39,0,2.21,IN,1674848550
409,hualmay,-11.0964,-77.6139,24.38,73,85,4.71,PE,1674848551
410,mersing,2.4312,103.8405,22.95,100,40,2.06,MY,1674848551
411,rio grande,-32.035,-52.0986,36.06,67,1,5.42,BR,1674848552
412,marana,32.4367,-111.2254,17.25,25,0,0.27,US,1674848552
413,thompson,55.7435,-97.8558,-26.91,69,20,5.66,CA,1674848552
414,evans,33.5337,-82.1307,10.17,39,0,4.12,US,1674848553
415,codajas,-3.8367,-62.0569,26.71,89,100,0.63,BR,1674848553
416,balabac,7.9868,117.0645,25.91,86,100,6.66,PH,1674848554
417,roald,62.5833,6.1333,6.85,70,75,10.29,NO,1674848554
418,uyuni,-20.4597,-66.825,19.26,28,100,7.33,BO,1674848555
419,severobaykalsk,55.65,109.3167,-12.04,96,100,1.28,RU,1674848555
420,orange cove,36.6244,-119.3137,17.35,57,0,0.0,US,1674848555
421,puerto madryn,-42.7692,-65.0385,23.27,31,0,2.5,AR,1674848556
422,shimanovsk,52.0,127.7,-36.26,100,21,1.58,RU,1674848556
423,sinnamary,5.3833,-52.95,25.92,68,87,3.97,GF,1674848557
424,nedjo,9.5046,35.5019,17.85,22,52,1.98,ET,1674848557
425,vangaindrano,-23.35,47.6,24.12,96,100,2.53,MG,1674848558
426,portland,45.5234,-122.6762,9.49,92,75,3.58,US,1674848300
427,najran,17.4924,44.1277,15.36,83,91,2.04,SA,1674848558
428,zella-mehlis,50.65,10.65,-1.36,95,100,4.29,DE,1674848558
429,hull,53.7446,-0.3353,5.13,49,100,1.54,GB,1674848559
430,sur,22.5667,59.5289,19.26,70,18,3.54,OM,1674848559
431,port lincoln,-34.7333,135.8667,20.0,83,100,2.47,AU,1674848560
432,husavik,66.0449,-17.3389,0.11,73,12,13.0,IS,1674848560
433,sechura,-5.5569,-80.8222,26.69,61,24,7.44,PE,1674848560
434,nueva loja,0.0847,-76.8828,32.01,45,20,2.57,EC,1674848561
435,brae,60.3964,-1.353,7.29,68,81,10.14,GB,1674848561
436,tabou,4.423,-7.3528,25.97,87,72,3.61,CI,1674848562
437,ocos,14.5094,-92.1933,33.1,62,7,4.21,GT,1674848562
438,srednekolymsk,67.45,153.6833,-36.03,97,75,2.93,RU,1674848563
439,samana,19.2056,-69.3369,28.12,69,40,6.69,DO,1674848563
440,kolokani,13.5728,-8.0339,27.07,17,100,4.37,ML,1674848564
441,nioro,13.35,-15.75,32.12,14,1,3.58,GM,1674848564
442,camacha,33.0833,-16.3333,13.68,58,75,6.69,PT,1674848564
443,bandarbeyla,9.4942,50.8122,24.39,73,6,5.48,SO,1674848565
444,coquimbo,-29.9533,-71.3436,20.85,64,0,6.69,CL,1674848489
445,norman wells,65.282,-126.8329,-18.98,71,40,7.2,CA,1674848566
446,jining,35.405,116.5814,-4.18,40,0,2.17,CN,1674848566
447,carcassonne,43.25,2.1667,4.57,83,100,8.23,FR,1674848566
448,wanaka,-44.7,169.15,12.28,78,66,1.35,NZ,1674848567
449,sambava,-14.2667,50.1667,25.47,91,54,1.49,MG,1674848567
450,baghdad,33.3406,44.4009,8.95,76,0,1.54,IQ,1674848549
451,uruzgan,32.8333,66.0,0.24,46,100,2.94,AF,1674848568
452,vestmanna,62.1564,-7.1664,4.51,75,75,12.86,FO,1674848568
453,shingu,33.7333,135.9833,-0.34,79,3,2.93,JP,1674848569
454,champerico,14.3,-91.9167,35.3,61,6,4.42,GT,1674848569
455,kudat,6.8837,116.8477,22.96,100,20,1.03,MY,1674848570
456,tabory,58.5198,64.5495,-3.72,96,100,3.04,RU,1674848570
457,campoverde,-8.4753,-74.8058,32.83,36,100,1.55,PE,1674848570
458,lock haven,41.137,-77.4469,3.83,48,100,4.15,US,1674848571
459,gao,16.6362,1.637,23.64,16,100,5.62,ML,1674848571
460,rumonge,-3.9736,29.4386,21.82,81,100,2.38,BI,1674848572
461,ballina,-28.8667,153.5667,20.56,99,65,2.31,AU,1674848572
462,port-cartier,50.0334,-66.8654,-7.92,71,11,4.66,CA,1674848572
463,palmas,-10.2128,-48.3603,28.93,70,20,2.06,BR,1674848573
464,muros,42.7762,-9.0603,9.49,74,11,5.26,ES,1674848573
465,cabano,10.5869,122.7002,25.25,87,100,7.56,PH,1674848574
466,comodoro rivadavia,-45.8667,-67.5,25.92,19,0,7.72,AR,1674848470
467,tezu,27.9167,96.1667,17.09,42,47,1.87,IN,1674848574
468,san cristobal,7.7669,-72.225,25.1,34,31,0.49,VE,1674848575
469,mgachi,51.05,142.2667,-20.71,99,100,1.84,RU,1674848575
470,rocha,-34.4833,-54.3333,28.28,54,100,5.61,UY,1674848444
471,pimentel,-6.8367,-79.9342,28.16,54,0,8.23,PE,1674848576
472,wanning,18.8003,110.3967,14.62,77,100,6.69,CN,1674848576
473,minab,27.1467,57.0801,12.65,74,100,3.26,IR,1674848577
474,mitchell,43.7094,-98.0298,-3.27,76,100,5.66,US,1674848328
475,macheng,31.1783,115.0319,-1.3,36,8,1.02,CN,1674848577
476,vila,42.0304,-8.1588,2.06,80,13,2.93,PT,1674848578
477,naryan-mar,67.6713,53.087,-7.76,87,31,5.51,RU,1674848578
478,east wenatchee,47.4157,-120.2931,12.03,55,0,5.66,US,1674848579
479,bayanday,53.0661,105.5139,-10.04,84,100,2.75,RU,1674848579
480,atambua,-9.1061,124.8925,23.39,85,100,0.21,ID,1674848580
481,monrovia,6.3005,-10.7969,22.87,85,65,4.7,LR,1674848520
482,bambanglipuro,-7.95,110.2833,24.28,86,100,1.33,ID,1674848580
483,karpathos,35.507,27.2132,15.98,59,1,6.17,GR,1674848580
484,lahij,13.1667,44.5833,20.35,80,57,2.38,YE,1674848581
485,pavilosta,56.8879,21.1859,-5.05,79,6,1.59,LV,1674848581
486,salalah,17.0151,54.0924,22.05,94,75,3.6,OM,1674848582
487,basi,26.8333,76.0333,12.19,30,0,2.11,IN,1674848582
488,walvis bay,-22.9575,14.5053,17.27,81,36,3.99,NA,1674848582
489,esso,55.9333,158.7,-20.99,100,90,2.21,RU,1674848583
490,mayo,38.8876,-76.5119,7.88,41,75,4.12,US,1674848583
491,sciacca,37.5082,13.0881,9.15,79,80,3.1,IT,1674848584
492,simpang,-1.2667,104.0833,23.82,94,100,1.82,ID,1674848584
493,washington,47.5001,-120.5015,9.16,52,9,2.07,US,1674848534
494,marawi,7.9986,124.2928,19.69,94,100,1.37,PH,1674848585
495,gamba,-2.65,10.0,25.35,84,69,2.41,GA,1674848585
496,xichang,27.8964,102.2634,4.33,60,100,1.27,CN,1674848585
497,yangjiang,21.85,111.9667,8.13,51,78,4.5,CN,1674848586
498,brigantine,39.4101,-74.3646,6.19,50,100,4.12,US,1674848563
499,dunda,-8.1167,34.25,18.53,93,100,1.09,TZ,1674848586
500,merauke,-8.4667,140.3333,24.44,93,100,3.22,ID,1674848587
501,novita,4.9551,-76.6053,28.43,79,99,1.94,CO,1674848587
502,pahrump,36.2083,-115.9839,10.7,38,0,0.45,US,1674848588
503,kirakira,-10.4544,161.9205,26.17,82,89,2.11,SB,1674848588
504,cordoba,-31.4135,-64.1811,20.98,94,75,2.57,AR,1674848485
505,otradnoye,59.7775,30.8181,-2.97,97,28,1.19,RU,1674848588
506,pedernales,18.0384,-71.744,26.87,61,9,2.71,DO,1674848589
507,ushtobe,45.2514,77.9838,-15.18,95,6,2.32,KZ,1674848589
508,bonthe,7.5264,-12.505,25.95,85,9,3.89,SL,1674848590
509,rasht,37.2808,49.5832,6.32,78,2,1.51,IR,1674848590
510,traverse city,44.7631,-85.6206,-0.96,70,100,10.29,US,1674848307
511,nikel,69.4128,30.222,-1.9,94,100,7.88,RU,1674848591
512,ho chi minh city,10.75,106.6667,25.01,65,40,3.09,VN,1674848591
513,eisenstadt,47.8457,16.5233,0.75,94,100,5.43,AT,1674848591
514,west plains,36.7281,-91.8524,10.5,53,0,6.26,US,1674848592
515,raudeberg,61.9875,5.1352,4.42,50,100,16.66,NO,1674848592
516,la rioja,42.25,-2.5,-0.12,98,100,2.68,ES,1674848593
517,pinawa,50.1489,-95.8811,-14.61,88,100,5.56,CA,1674848593
518,hongjiang,27.11,109.9956,2.11,39,5,1.07,CN,1674848594
519,kjollefjord,70.9457,27.3465,1.03,93,75,7.72,NO,1674848594
520,pangai,-19.8,-174.35,28.06,74,75,1.54,TO,1674848596
521,dubti,11.7361,41.0853,26.1,50,74,5.38,ET,1674848596
522,poum,-20.2333,164.0167,26.82,80,70,3.45,NC,1674848596
523,hami,42.8,93.45,-8.2,35,2,0.37,CN,1674848597
524,te anau,-45.4167,167.7167,9.45,72,13,0.2,NZ,1674848597
525,norrkoping,58.5942,16.1826,-2.68,89,12,1.03,SE,1674848598
526,sulangan,11.1373,123.7228,26.26,83,100,7.0,PH,1674848598
527,belaya gora,68.5333,146.4167,-37.79,98,98,1.26,RU,1674848598
528,mercedes,-34.6515,-59.4307,26.64,69,100,3.82,AR,1674848599
529,jinchang,38.4953,102.1739,-9.48,32,0,0.46,CN,1674848599
530,ukiah,39.1502,-123.2078,18.02,54,0,0.0,US,1674848600
531,buritama,-21.0661,-50.1472,32.06,66,82,2.44,BR,1674848600
532,babynino,54.39,35.73,-3.14,96,93,1.51,RU,1674848600
533,alugan,12.2188,125.4808,24.78,89,100,2.55,PH,1674848601
534,basco,20.4487,121.9702,19.0,75,100,16.85,PH,1674848601
535,beawar,26.1,74.3167,9.9,23,0,2.69,IN,1674848602
536,torbat-e jam,35.244,60.6225,1.63,45,87,0.59,IR,1674848602
537,sujiatun,41.6592,123.3392,-19.9,65,0,1.0,CN,1674848603
538,hurricane,37.1753,-113.2899,8.66,44,22,0.99,US,1674848603
539,pacific grove,36.6177,-121.9166,17.03,60,0,4.02,US,1674848604
540,gobabis,-22.45,18.9667,28.58,26,76,5.17,NA,1674848604
541,guhagar,17.4842,73.1929,21.78,78,0,0.85,IN,1674848604
542,vila velha,-20.3297,-40.2925,29.97,79,20,5.14,BR,1674848605
543,kamenka,51.3223,42.7678,-8.68,89,5,2.44,RU,1674848605
544,caconda,-13.7333,15.0667,16.49,88,95,2.01,AO,1674848606
545,sao joaquim,-28.2939,-49.9317,22.08,62,65,2.0,BR,1674848606
546,barreirinhas,-2.7469,-42.8264,26.92,74,19,4.27,BR,1674848607
547,kalabo,-14.97,22.6814,19.41,94,100,1.69,ZM,1674848607
548,petrovsk,52.3064,45.3917,-11.0,94,32,2.33,RU,1674848608
549,frunze,48.6686,38.7544,-2.53,67,9,2.58,UA,1674848608
550,maureni,45.4039,21.5025,0.88,96,100,2.65,RO,1674848609
551,bowen,-20.0167,148.2333,25.08,89,24,3.23,AU,1674848609
552,verkhnevilyuysk,63.4453,120.3167,-45.41,100,64,1.46,RU,1674848610
553,aripuana,-9.1667,-60.6333,26.93,82,97,0.23,BR,1674848541
554,upata,8.0086,-62.3989,26.12,54,93,1.76,VE,1674848611
555,sartell,45.6216,-94.2069,-7.03,68,20,11.32,US,1674848611
556,saint-augustin,51.226,-58.6502,-9.79,77,57,5.85,CA,1674848611
557,maun,-19.9833,23.4167,28.98,28,0,3.6,BW,1674848612
558,praia da vitoria,38.7333,-27.0667,14.14,82,75,5.19,PT,1674848378
559,mayumba,-3.432,10.6554,26.02,81,88,2.45,GA,1674848613
560,ruteng,-8.6136,120.4721,17.32,92,100,0.81,ID,1674848613
561,ramhormoz,31.28,49.6035,11.61,55,0,2.3,IR,1674848614
562,girne,35.3417,33.3167,15.75,71,89,8.54,CY,1674848614
563,santarem,-2.4431,-54.7083,26.07,83,75,3.09,BR,1674848344
564,mbanza-ngungu,-5.25,14.8667,20.82,91,100,0.44,CD,1674848614
565,huambo,-12.7761,15.7392,15.59,90,84,1.61,AO,1674848615
566,bundaberg,-24.85,152.35,22.34,99,63,0.45,AU,1674848615
567,sept-iles,50.2001,-66.3821,-7.75,62,40,4.63,CA,1674848616
568,saint stephen,50.3333,-4.9,4.15,75,75,2.57,GB,1674848617
569,wajima,37.4,136.9,-0.53,74,95,10.63,JP,1674848617
570,kidal,18.4411,1.4078,20.87,11,43,4.88,ML,1674848617
571,bamenda,5.9527,10.1582,21.36,34,26,1.07,CM,1674848618
572,azul,-36.777,-59.8585,31.19,37,100,1.7,AR,1674848619
573,cheyenne,41.14,-104.8203,2.1,53,0,4.12,US,1674848342
574,requena,39.4883,-1.1004,3.22,73,32,3.6,ES,1674848619
